~Version Information Section
VERS.       2.00        :Log ASCII Standard-VERSION 2.0
WRAP.       NO          :One line per depth step
VEND.       PRIZM       :GeoGraphix
~Well Information Section
#MNEM.UNIT               VALUE/NAME                 DESCRIPTION
#----.----     ----------------------------------   --------------------
 STRT.M        2458.5300                            :START DEPTH
 STOP.M        2613.6550                            :STOP DEPTH
 STEP.M        0.1250                               :STEP
 NULL.         -999.2500                            :NULL VALUE
 WELL.         T010                                 :WELL
 COMP.                                              :COMPANY
 UWI.          T010                                 :UNIQUE WELL ID
 FLD.                                               :FIELD
 CNTY.                                              :COUNTY
 STAT.                                              :STATE
 CTRY.                                              :COUNTRY
 PROV.                                              :PROVENCE
 SRVC.         GEOGRAPHIX                           :SERVICE
 PDAT.         GR                                   :PERMANENT DATUM
 LMF.          KB                                   :LOG MEASURED FROM
 DMF.          KB                                   :DRILLING MEASURED FROM
 LOC.          TWP        - Range       - Sec       :LOCATION DESCRIPTION
 FTG.                                               :LOCATION FOOTAGE DESCRIPTION
 LOC1.                                              :LOCATION LINE 1
 LOC2.                                              :LOCATION LINE 2
 DATE.                                              :LOG DATE
~Curve Information Section
#MNEM.UNIT              API CODE            CURVE DESCRIPTION
#----.----            LG--CV-CL--M          -------------------------
 DEPT.M                                     :DEPTH
 GR.API                                     :Gamma Ray
 SP.MV                                      :Spontaneous Potential
 CAL.CM                                     :Description
 AC.US/MT                                   :Description
 CNL.                                       :Description
 DEN.GM/CC                                  :Description
 LLD.OHMM                                   :Laterlog-Deep Resistivity
 LLS.OHMM                                   :Laterlog-Shallow Resistivity
~Parameter Information Section
#MNEM.UNIT                  VALUE                   DESCRIPTION
#----.----     ----------------------------------   --------------------
 EKB.          1099.3000                            :ELEVATION OF KELLY BUSHING
 EDF.          -999.2500                            :ELEVATION OF DRILLING FLOOR
 EGL.          -999.2500                            :ELEVATION OF GROUND LEVEL
~A
# ...
 2518.5300    60.5300    63.3570    26.0760   205.5780    16.1230     2.2360   199.9860   187.1420 
 2518.6550    77.3640    64.0610    25.1990   204.4190    13.9690     2.2460   159.0510   148.9120 
 2518.7800    92.9030    64.7650    24.8060   203.0430    12.2490     2.3040   128.1220   120.6160 
 2518.9050   102.0990    65.4690    24.3840   202.6620    11.7320     2.4170   109.6020   104.0970 
 2519.0300   102.0000    66.1400    24.1500   202.3770    12.4060     2.5330   101.5540    97.3130 
 2519.1550    97.0820    67.1260    23.9550   202.0200    13.2140     2.6050    98.6630    95.2490 
 2519.2800    92.6440    68.8600    23.3050   202.2430    13.0290     2.6320    98.0450    95.2300 
 2519.4050    93.4990    69.2280    22.7040   202.2180    11.8020     2.6380    97.4480    95.2010 
 2519.5300   100.3500    69.6850    22.7040   200.9890    10.7820     2.6430    95.8420    94.1280 
 2519.6550   112.8000    70.7140    22.7040   199.5740    10.5210     2.6460    93.4190    92.0150 
 2519.7800   126.7240    71.6570    22.3140   199.6790    10.7610     2.6470    91.3650    89.8770 
 2519.9050   135.5760    72.5620    22.2850   201.5290    10.9870     2.6460    90.4270    88.5800 
 2520.0300   134.2120    73.5270    22.2930   204.4680    11.1490     2.6440    90.5030    88.2190 
 2520.1550   125.0480    73.7960    22.3290   207.4520    11.5140     2.6390    90.8370    88.1950 
 2520.2800   114.9670    73.8660    22.3720   210.1880    11.9790     2.6340    91.0700    88.1550 
 2520.4050   108.2860    73.9990    22.4170   211.5740    12.0740     2.6310    91.1410    88.0070 
 2520.5300   103.5560    74.2100    22.4850   210.1850    11.5930     2.6310    91.0710    87.7820 
 2520.6550    99.4560    74.4220    22.5140   207.5120    10.9850     2.6330    90.8160    87.4750 
 2520.7800    96.8510    74.6330    22.4740   206.2590    10.9810     2.6370    90.2060    86.9260 
 2520.9050    97.0770    74.6780    22.4360   206.5140    11.7510     2.6400    89.0900    85.8800 
 2521.0300   100.0600    74.6780    22.4110   208.2440    13.1810     2.6410    87.4230    84.2500 
 2521.1550   104.6770    74.3110    22.4100   211.4940    14.7270     2.6390    85.5810    82.4610 
 2521.2800   109.4820    74.0340    22.4480   213.9510    15.6490     2.6370    84.2150    81.2010 
 2521.4050   112.8510    74.0340    22.5290   214.3070    15.5820     2.6380    83.7960    80.9020 
 2521.5300   113.2820    74.0330    22.5640   213.2410    14.8490     2.6410    84.2190    81.4030 
 2521.6550   110.5650    74.0240    22.5680   214.6360    13.8500     2.6450    84.9310    82.1890 
 2521.7800   105.7430    73.9810    22.5590   215.1850    12.7640     2.6480    85.4600    82.8620 
 2521.9050   101.5910    73.8680    22.5050   216.0680    11.8780     2.6480    85.7400    83.3420 
 2522.0300    99.4720    73.6800    22.4050   216.2650    11.3390     2.6470    86.1870    83.9630 
 2522.1550    99.2660    73.4370    22.3860   216.0330    11.0450     2.6450    87.3600    85.2510 
 2522.2800    98.3670    73.1710    22.4050   213.8110    10.7460     2.6390    89.2100    87.1510 
 2522.4050    94.8880    72.8500    22.4260   209.6420    10.4130     2.6280    91.3090    89.1800 
 2522.5300    89.1560    72.3640    22.4370   206.9470    10.3100     2.6150    93.0840    90.6800 
 2522.6550    84.5900    71.7710    22.4310   206.3100    10.5540     2.5870    94.2690    91.4750 
 2522.7800    84.1540    71.2480    22.3800   207.7580    11.0690     2.5240    94.9220    91.6990 
 2522.9050    86.6390    70.8660    22.7760   212.5470    11.6040     2.4210    95.9330    92.1570 
 2523.0300    87.0890    70.4910    23.1310   218.4680    11.7960     2.3350    98.9320    94.3580 
 2523.1550    82.3210    70.0460    23.8210   222.3160    11.2450     2.3310   106.0040   100.4070 
 2523.2800    73.8570    69.5620    24.6410   223.2930    10.1310     2.3390   118.5830   111.8790 
 2523.4050    65.3330    69.0700    25.6270   222.5260     9.0570     2.3550   136.8830   128.9120 
 2523.5300    59.1160    68.5870    26.3090   220.6320     8.4160     2.3390   161.7650   152.0000 
 2523.6550    54.7370    68.1390    26.3090   219.0240     8.0920     2.2960   191.2920   179.4020 
 2523.7800    51.4280    67.7520    25.8620   218.2790     7.9020     2.2550   220.5400   206.9640 
 2523.9050    49.1440    67.4290    26.0020   219.2690     7.8290     2.2180   240.3320   226.1840 
 2524.0300    47.8330    67.1200    26.6250   222.5210     7.8900     2.1780   246.5510   232.4640 
 2524.1550    47.2280    66.8020    27.4360   227.7770     8.0660     2.1320   240.4740   226.5740 
 2524.2800    46.8790    66.4740    28.2480   232.6840     8.3780     2.0900   228.5310   214.8610 
 2524.4050    46.6700    66.1440    29.0600   235.0800     8.7470     2.0600   218.9790   205.7470 
 2524.5300    46.0390    65.8140    28.8960   235.0530     8.9430     2.0460   218.9860   206.1050 
 2524.6550    43.8850    65.4840    28.2900   232.1580     8.7370     2.0450   234.7200   221.4060 
 2524.7800    40.3710    65.1570    27.6830   225.6890     8.3030     2.0570   266.4920   251.4820 
 2524.9050    36.6550    64.8510    27.0830   219.8600     7.7380     2.0980   314.9380   297.5440 
 2525.0300    34.6780    64.6060    26.5550   218.2730     6.8320     2.1790   373.4730   355.2950 
 2525.1550    35.1980    64.4530    25.7100   217.8960     5.6870     2.2360   422.4340   406.4770 
 2525.2800    37.7170    64.3940    25.1120   216.7980     4.8390     2.3360   428.3300   417.1570 
 2525.4050    40.9810    64.3790    25.1070   215.8150     4.5530     2.3970   386.9610   380.6720 
 2525.5300    44.4320    64.3780    25.1070   215.2660     4.7120     2.4220   323.2980   320.6990 
 2525.6550    47.4510    64.3780    25.1070   213.7550     5.0610     2.4290   274.1460   273.8070 
 2525.7800    48.3480    64.3780    25.1070   211.2250     5.3290     2.4360   248.0860   248.8690 
 2525.9050    46.1310    64.3780    25.4800   209.3320     5.3770     2.4470   238.6810   239.5420 
 2526.0300    43.2900    64.3780    25.3880   208.2020     5.1260     2.4510   243.5280   243.3680 
 2526.1550    43.2740    64.3780    24.3440   207.5010     4.7550     2.4490   262.3620   260.5310 
 2526.2800    46.1180    64.3830    23.9240   207.5060     4.4850     2.4510   292.0750   288.9260 
 2526.4050    48.0620    64.4130    23.5020   208.0550     4.3630     2.4700   328.4100   325.5480 
 2526.5300    46.7150    64.4930    23.2210   207.8260     4.2710     2.5070   372.9850   371.6230 
 2526.6550    42.4620    64.6440    23.0040   206.4780     4.1470     2.5510   419.1480   419.1360 
 2526.7800    38.0170    64.8420    23.0040   204.9610     4.0950     2.5890   443.6210   443.2470 
 2526.9050    35.6720    65.0590    23.0040   204.5710     4.2050     2.6170   435.8680   433.1540 
 2527.0300    36.4700    65.2820    23.0040   206.1170     4.3380     2.6260   406.6550   400.1780 
 2527.1550    38.1290    65.5040    23.0600   207.6670     4.3650     2.6110   382.9340   372.5060 
 2527.2800    38.6710    65.7260    23.4470   206.9440     4.4710     2.5610   375.1540   361.3610 
 2527.4050    37.6530    65.9490    23.8380   204.9630     5.0400     2.4680   383.8000   367.0190 
 2527.5300    36.5620    66.1710    24.5650   204.2940     5.9200     2.3580   399.8360   379.8720 
 2527.6550    36.2020    66.3920    25.6500   205.1350     6.4700     2.2570   411.0640   388.3730 
 2527.7800    36.3840    66.6070    26.9020   207.2450     6.2350     2.1890   405.4900   382.1080 
 2527.9050    37.2340    66.8110    28.0690   208.9530     5.8640     2.1590   384.6720   363.0010 
 2528.0300    39.8280    67.0130    28.9250   209.2370     5.8990     2.1560   352.1410   333.4280 
 2528.1550    45.7760    67.2400    29.0130   208.6120     6.2570     2.1660   308.2280   291.9910 
 2528.2800    56.1290    67.4990    29.0130   207.5640     6.7140     2.1800   253.8590   239.7080 
 2528.4050    71.4190    67.7810    29.0130   208.0410     7.3870     2.1790   196.4060   184.8820 
