~Version Information Section
VERS.       2.00        :Log ASCII Standard-VERSION 2.0
WRAP.       NO          :One line per depth step
VEND.       PRIZM       :GeoGraphix
~Well Information Section
#MNEM.UNIT               VALUE/NAME                 DESCRIPTION
#----.----     ----------------------------------   --------------------
 STRT.M        2458.5300                            :START DEPTH
 STOP.M        2613.6550                            :STOP DEPTH
 STEP.M        0.1250                               :STEP
 NULL.         -999.2500                            :NULL VALUE
 WELL.         T010                                 :WELL
 COMP.                                              :COMPANY
 UWI.          T010                                 :UNIQUE WELL ID
 FLD.                                               :FIELD
 CNTY.                                              :COUNTY
 STAT.                                              :STATE
 CTRY.                                              :COUNTRY
 PROV.                                              :PROVENCE
 SRVC.         GEOGRAPHIX                           :SERVICE
 PDAT.         GR                                   :PERMANENT DATUM
 LMF.          KB                                   :LOG MEASURED FROM
 DMF.          KB                                   :DRILLING MEASURED FROM
 LOC.          TWP        - Range       - Sec       :LOCATION DESCRIPTION
 FTG.                                               :LOCATION FOOTAGE DESCRIPTION
 LOC1.                                              :LOCATION LINE 1
 LOC2.                                              :LOCATION LINE 2
 DATE.                                              :LOG DATE
~Curve Information Section
#MNEM.UNIT              API CODE            CURVE DESCRIPTION
#----.----            LG--CV-CL--M          -------------------------
 DEPT.M                                     :DEPTH
 GR.API                                     :Gamma Ray
 SP.MV                                      :Spontaneous Potential
 CAL.CM                                     :Description
 AC.US/MT                                   :Description
 CNL.                                       :Description
 DEN.GM/CC                                  :Description
 LLD.OHMM                                   :Laterlog-Deep Resistivity
 LLS.OHMM                                   :Laterlog-Shallow Resistivity
~Parameter Information Section
#MNEM.UNIT                  VALUE                   DESCRIPTION
#----.----     ----------------------------------   --------------------
 EKB.          1099.3000                            :ELEVATION OF KELLY BUSHING
 EDF.          -999.2500                            :ELEVATION OF DRILLING FLOOR
 EGL.          -999.2500                            :ELEVATION OF GROUND LEVEL
~A
# ...
 2598.5300   146.4930    74.5320    22.9190   226.1030    19.2820     2.5250    61.4210    58.4800 
 2598.6550   147.8020    74.1700    22.8650   226.8580    19.9310     2.5300    60.6190    57.6800 
 2598.7800   148.8060    73.8910    22.8190   227.7030    20.6710     2.5230    58.7700    55.7250 
 2598.9050   148.2500    74.0070    22.8330   228.1090    21.2380     2.5090    56.3340    53.0970 
 2599.0300   146.7390    74.6020    22.8420   229.4150    21.7290     2.5020    54.6970    51.1290 
 2599.1550   145.5310    75.3570    22.8520   229.2710    22.3030     2.5100    55.1300    51.0220 
 2599.2800   146.0310    76.0210    22.8740   225.3170    22.9380     2.5340    58.3940    53.4550 
 2599.4050   150.2530    76.5350    22.8730   221.1620    23.4390     2.5610    64.4880    58.3780 
 2599.5300   157.8270    76.9140    22.8010   218.6160    23.6450     2.5760    72.8470    65.2310 
 2599.6550   166.1190    77.0750    22.7480   215.2100    23.4190     2.5710    82.3100    72.9620 
 2599.7800   171.4560    76.9830    22.6890   213.2260    22.6670     2.5550    90.7450    79.7500 
 2599.9050   172.4490    76.7280    22.6280   214.2900    21.5280     2.5390    97.4070    84.9800 
 2600.0300   169.1890    76.4950    22.5850   215.2340    20.4040     2.5320   103.0900    89.3860 
 2600.1550   163.0130    76.4110    22.6050   218.6450    19.5260     2.5320   109.3580    94.2980 
 2600.2800   155.4160    76.4420    22.6260   225.2710    18.8380     2.5350   116.5040    99.8730 
 2600.4050   148.5920    76.4160    22.6630   226.7110    18.2540     2.5400   123.6910   105.3480 
 2600.5300   142.6850    76.2400    22.8130   224.2020    17.8480     2.5470   129.8670   109.9530 
 2600.6550   138.0210    76.0220    22.8420   222.6910    17.8900     2.5560   134.2880   113.2310 
 2600.7800   136.0640    76.0350    22.7840   219.7740    18.4980     2.5640   136.7240   115.0970 
 2600.9050   136.8150    76.3010    22.7610   215.6010    19.3440     2.5670   137.7010   115.8920 
 2601.0300   138.4200    76.5810    22.7280   215.0420    20.0170     2.5660   137.5620   115.8200 
 2601.1550   137.9510    76.5960    22.6370   217.1880    20.3510     2.5620   136.7500   115.2300 
 2601.2800   136.7000    76.4120    22.6210   217.6770    20.4560     2.5580   135.5870   114.4640 
 2601.4050   137.8670    76.3030    22.6710   215.3040    20.3900     2.5560   134.3370   113.8000 
 2601.5300   140.2300    76.4190    22.6640   214.0170    20.1450     2.5570   133.5720   113.5870 
 2601.6550   140.8290    76.6860    22.6310   216.5260    19.8100     2.5620   134.1240   114.4840 
 2601.7800   137.6040    76.9780    22.5990   220.8620    19.5770     2.5730   137.4180   118.0380 
 2601.9050   132.6190    77.2130    22.6510   223.2700    19.5390     2.5870   142.5480   123.9560 
 2602.0300   128.7850    77.3040    22.7460   223.8090    19.6100     2.6010   146.3780   129.7200 
 2602.1550   129.8200    77.1300    22.7780   224.6350    19.6810     2.6070   143.7170   130.4780 
 2602.2800   137.2600    76.7570    22.7850   224.7730    20.0050     2.6020   133.6820   124.7440 
 2602.4050   149.4980    76.3680    22.7970   223.6490    20.6250     2.5830   118.3460   113.7140 
 2602.5300   159.4170    76.1550    22.8060   224.6770    20.9920     2.5570   102.4670   101.2870 
 2602.6550   163.1910    76.1360    22.7820   226.9300    20.7180     2.5350    89.2230    90.5440 
 2602.7800   161.3130    76.2920    22.8140   226.2950    19.9040     2.5230    80.3370    83.3050 
 2602.9050   157.5410    76.5720    22.8430   223.0260    19.3820     2.5180    74.4520    78.4300 
 2603.0300   153.6830    76.9010    22.8350   219.8920    19.6220     2.5120    69.1580    73.5750 
 2603.1550   149.8360    77.1990    22.7920   222.6410    20.5990     2.5060    63.3750    67.7890 
 2603.2800   146.9030    77.4880    22.7200   231.8710    21.2370     2.4970    58.6450    62.9300 
 2603.4050   146.7430    77.8820    22.7870   238.1760    21.1750     2.4930    56.5910    60.7030 
 2603.5300   148.6990    78.4670    22.9720   235.1560    21.7210     2.4920    59.1330    63.0260 
 2603.6550   147.5790    79.0770    23.0400   231.0290    22.4260     2.5010    70.4630    74.2670 
 2603.7800   138.1050    79.4550    22.9980   231.5760    24.2100     2.5220    97.8900   102.1360 
 2603.9050   119.6670    79.4000    22.9100   246.8150    26.7580     2.5230   148.7870   122.7680 
 2604.0300    99.9080    79.0140    22.9120   278.6570    30.7670     2.4800   238.2090   202.4630 
 2604.1550    86.6130    78.5100    25.2690   316.5460    37.0160     2.3870   397.9730   357.4800 
 2604.2800    80.1590    78.1860    26.1580   348.6430    44.8940     2.2640   622.1790   583.1970 
 2604.4050    74.2710    78.1970    27.9400   370.9720    51.5190     2.1450   900.4280   866.6950 
 2604.5300    64.3480    78.5420    29.9440   377.5220    54.0210     2.0700  1318.2061  1302.8420 
 2604.6550    54.2220    78.9270    30.4880   378.5050    54.0680     2.0470  1790.0100  1799.4550 
 2604.7800    49.4940    79.1270    30.7980   382.2950    52.9980     2.0710  2002.4490  2022.1169 
 2604.9050    53.7470    79.1040    30.8150   378.4920    50.3400     2.1450  1631.9480  1632.3610 
 2605.0300    65.1010    79.0790    30.5930   356.8030    46.5840     2.2480   969.4980   943.8960 
 2605.1550    82.1540    79.1680    28.9780   320.2210    42.4240     2.3510   427.6320   393.1010 
 2605.2800   101.4110    79.3240    26.9350   277.1790    36.9910     2.4350   227.1590   201.4550 
 2605.4050   117.4470    79.5020    25.5990   237.9600    30.0020     2.5020   180.7270   162.4310 
 2605.5300   126.3830    79.8340    24.2390   212.7130    23.5720     2.5500   175.8920   161.3720 
 2605.6550   128.9110    80.4670    23.3000   203.3200    19.5310     2.5720   183.9670   171.6360 
 2605.7800   129.9810    81.2210    22.7200   201.4470    17.8310     2.5870   191.1450   180.3160 
 2605.9050   133.8730    81.6910    22.7040   201.9790    18.0180     2.5940   186.7980   177.2320 
 2606.0300   140.2120    81.6400    22.7040   202.6890    18.1870     2.5960   172.7990   164.2320 
 2606.1550   145.2580    81.2710    22.7040   203.2730    17.7430     2.5960   157.5280   149.2610 
 2606.2800   146.2680    81.0820    22.4150   205.2420    17.5610     2.5970   148.2710   138.9680 
 2606.4050   144.0600    81.4900    22.4040   208.3940    17.4120     2.6000   147.4510   135.4950 
 2606.5300   139.1520    82.4850    22.4350   210.4110    17.3090     2.6030   155.4360   139.3720 
 2606.6550   132.1050    83.5670    22.5120   211.9760    17.7090     2.5980   171.8230   150.3880 
 2606.7800   125.4010    84.1390    22.5370   217.9150    19.1140     2.5810   192.4510   164.6430 
 2606.9050   120.1820    84.0730    22.5710   234.3820    21.7770     2.5410   212.7310   178.0360 
 2607.0300   115.2840    83.7920    24.2730   254.8610    24.5380     2.4570   227.5280   186.7620 
 2607.1550   109.3750    83.6930    25.0860   264.8310    25.2830     2.3630   236.5950   191.7340 
 2607.2800   103.7340    83.7430    26.2080   262.3820    23.6850     2.3240   241.1710   194.9070 
 2607.4050   101.4520    83.6880    25.9270   252.1110    21.7650     2.3570   241.8630   196.2700 
 2607.5300   103.4260    83.5380    25.6500   231.5630    20.2640     2.4340   237.1800   193.5550 
 2607.6550   110.6610    83.4480    24.9030   209.1400    19.0170     2.5300   225.3060   184.6330 
 2607.7800   121.6160    83.3400    24.0270   200.5810    18.1470     2.6040   208.7240   171.5410 
 2607.9050   132.9610    82.9990    23.3050   203.5730    17.9730     2.6280   190.7910   157.1400 
 2608.0300   140.9580    82.3630    23.0190   209.5400    18.5390     2.6090   174.0090   143.2690 
 2608.1550   146.0780    81.7500    22.4130   216.1330    19.5100     2.5820   158.6530   130.0810 
 2608.2800   150.8200    81.3650    22.4980   222.3790    20.6810     2.5610   144.4660   117.5690 
 2608.4050   155.7850    81.1700    22.6120   225.6970    21.6500     2.5510   132.2630   106.7970 
