~Version Information Section
VERS.       2.00        :Log ASCII Standard-VERSION 2.0
WRAP.       NO          :One line per depth step
VEND.       PRIZM       :GeoGraphix
~Well Information Section
#MNEM.UNIT               VALUE/NAME                 DESCRIPTION
#----.----     ----------------------------------   --------------------
 STRT.M        2458.5300                            :START DEPTH
 STOP.M        2613.6550                            :STOP DEPTH
 STEP.M        0.1250                               :STEP
 NULL.         -999.2500                            :NULL VALUE
 WELL.         T010                                 :WELL
 COMP.                                              :COMPANY
 UWI.          T010                                 :UNIQUE WELL ID
 FLD.                                               :FIELD
 CNTY.                                              :COUNTY
 STAT.                                              :STATE
 CTRY.                                              :COUNTRY
 PROV.                                              :PROVENCE
 SRVC.         GEOGRAPHIX                           :SERVICE
 PDAT.         GR                                   :PERMANENT DATUM
 LMF.          KB                                   :LOG MEASURED FROM
 DMF.          KB                                   :DRILLING MEASURED FROM
 LOC.          TWP        - Range       - Sec       :LOCATION DESCRIPTION
 FTG.                                               :LOCATION FOOTAGE DESCRIPTION
 LOC1.                                              :LOCATION LINE 1
 LOC2.                                              :LOCATION LINE 2
 DATE.                                              :LOG DATE
~Curve Information Section
#MNEM.UNIT              API CODE            CURVE DESCRIPTION
#----.----            LG--CV-CL--M          -------------------------
 DEPT.M                                     :DEPTH
 GR.API                                     :Gamma Ray
 SP.MV                                      :Spontaneous Potential
 CAL.CM                                     :Description
 AC.US/MT                                   :Description
 CNL.                                       :Description
 DEN.GM/CC                                  :Description
 LLD.OHMM                                   :Laterlog-Deep Resistivity
 LLS.OHMM                                   :Laterlog-Shallow Resistivity
~Parameter Information Section
#MNEM.UNIT                  VALUE                   DESCRIPTION
#----.----     ----------------------------------   --------------------
 EKB.          1099.3000                            :ELEVATION OF KELLY BUSHING
 EDF.          -999.2500                            :ELEVATION OF DRILLING FLOOR
 EGL.          -999.2500                            :ELEVATION OF GROUND LEVEL
~A
# ...
 2488.5300   149.1830    70.4830    22.8470   223.3690    22.1060     2.6090    54.3540    56.2130 
 2488.6550   151.0370    70.6920    22.7360   226.1120    22.2670     2.6000    57.1670    59.0150 
 2488.7800   151.4430    70.8030    22.7060   229.6420    22.8390     2.6160    57.7640    59.3740 
 2488.9050   150.8620    70.8150    22.7680   233.5310    23.2040     2.6280    56.2210    57.5150 
 2489.0300   150.5280    70.8150    22.8370   236.1010    23.0440     2.6210    53.5960    54.6320 
 2489.1550   149.7590    70.8150    22.8810   234.0690    22.4860     2.6160    51.0990    51.9770 
 2489.2800   146.3950    70.8150    22.9420   231.2160    21.8050     2.6120    49.1710    49.9180 
 2489.4050   140.7730    70.8150    22.9160   231.8880    21.1170     2.6000    48.0170    48.6250 
 2489.5300   136.1000    70.8150    22.8540   234.0950    20.4460     2.5640    47.7740    48.2730 
 2489.6550   133.6420    70.8150    22.8670   235.1340    19.9730     2.5060    47.9460    48.3920 
 2489.7800   132.2720    70.8150    22.9170   236.3680    19.9990     2.4440    48.1660    48.6180 
 2489.9050   129.9730    70.8910    22.9270   237.1150    20.5990     2.4110    48.6530    49.1360 
 2490.0300   126.7580    71.0620    22.9520   234.1670    21.2930     2.4250    49.4600    49.9330 
 2490.1550   124.7710    71.2540    22.9720   229.5310    21.2410     2.4740    50.1540    50.4630 
 2490.2800   125.0080    71.4460    22.9010   228.6600    20.4750     2.5180    50.6860    50.6470 
 2490.4050   125.6870    71.6380    22.8170   227.7430    19.7860     2.5400    51.6650    51.1770 
 2490.5300   124.7220    71.8300    22.8100   223.0470    19.6790     2.5570    53.7920    52.8740 
 2490.6550   122.9960    72.0220    22.7960   219.7750    19.7860     2.5890    57.2990    55.9820 
 2490.7800   121.9530    72.2140    22.7220   217.3630    19.8700     2.6110    62.5330    60.7470 
 2490.9050   121.9560    72.4060    22.6380   212.9900    20.1260     2.6160    69.1550    66.7600 
 2491.0300   122.9530    72.5980    22.5980   212.5320    20.5370     2.6350    75.3450    72.3100 
 2491.1550   124.8710    72.7900    22.5010   216.7050    20.8900     2.6420    79.6450    76.0340 
 2491.2800   125.6850    72.9820    22.5000   219.6670    21.1390     2.6340    82.0650    77.9490 
 2491.4050   123.6660    73.1740    22.5810   222.6000    21.4120     2.6220    83.7260    79.1310 
 2491.5300   119.6020    73.3350    22.6260   227.1460    21.5850     2.6120    85.2640    80.2140 
 2491.6550   116.7820    73.2980    22.7000   229.0680    21.0670     2.6050    87.1200    81.6240 
 2491.7800   116.6290    73.0830    22.7810   227.7960    19.8500     2.6000    89.6890    83.7360 
 2491.9050   118.2400    72.8390    22.8070   225.0900    18.8200     2.5980    93.7110    87.2910 
 2492.0300   119.5290    72.5950    22.7870   220.0320    18.4180     2.6000    99.8440    92.9490 
 2492.1550   119.9750    72.3520    22.7440   213.5600    18.2630     2.6050   108.2390   100.9090 
 2492.2800   120.8450    72.1080    22.6150   209.9910    17.9600     2.6080   116.8730   109.3330 
 2492.4050   123.6360    71.8640    22.5280   208.8520    17.6060     2.6090   121.7640   114.3940 
 2492.5300   128.7720    71.6210    22.4750   208.9360    17.4720     2.6080   120.4660   113.6760 
 2492.6550   135.5000    71.4630    22.4490   210.6480    17.8180     2.6110   113.5480   107.5580 
 2492.7800   143.1350    71.3380    22.4500   212.4380    18.6700     2.6130   104.3970    99.1880 
 2492.9050   152.6290    71.1710    22.4910   213.6450    19.9800     2.6130    95.5380    90.9420 
 2493.0300   164.4060    71.0040    22.5160   215.6820    21.2450     2.6140    88.8940    84.7000 
 2493.1550   175.9230    70.8380    22.5350   217.1830    21.9390     2.6150    85.2250    81.2570 
 2493.2800   182.3300    70.6710    22.5580   216.3090    21.8720     2.6160    85.0320    81.0620 
 2493.4050   180.0890    70.5040    22.5950   214.4670    20.8880     2.6210    88.0550    83.7970 
 2493.5300   168.7190    70.3370    22.5810   211.6440    19.0840     2.6240    93.9150    89.1460 
 2493.6550   149.2470    70.1710    22.5350   206.9890    16.8860     2.6220   102.1710    96.8280 
 2493.7800   127.8950    70.0040    22.5000   201.9530    14.7270     2.6080   111.6970   105.8520 
 2493.9050   110.5040    69.8370    22.4290   196.7550    12.8090     2.5820   120.9920   114.8510 
 2494.0300   101.3340    69.6700    22.3450   192.1100    11.4120     2.5700   126.4100   120.3720 
 2494.1550    98.8370    69.2610    22.2290   189.9490    10.6080     2.5820   125.6520   120.0650 
 2494.2800   100.6310    68.4170    22.1270   190.3120    10.3660     2.5860   119.0710   114.1030 
 2494.4050   102.8240    68.4790    22.1030   192.9450    10.4960     2.5710   110.6450   106.2610 
 2494.5300   102.8250    68.5910    22.1100   197.1760    10.8390     2.5580   103.4980    99.4990 
 2494.6550   100.4130    68.7850    22.1410   200.1160    11.2610     2.5430    98.5920    94.5930 
 2494.7800    98.5930    69.1270    22.2250   201.8910    11.5010     2.5230    95.8550    91.4860 
 2494.9050    99.2790    69.6250    22.2870   204.1830    11.4720     2.5150    94.6430    89.8640 
 2495.0300   101.8980    70.2130    22.3290   204.9640    11.3830     2.5330    93.8220    88.9230 
 2495.1550   103.7900    70.7420    22.3570   204.6670    11.5550     2.5690    92.4810    87.6480 
 2495.2800   103.3620    71.1350    22.3730   205.7200    12.0120     2.6140    90.9710    86.1430 
 2495.4050   100.4790    71.3150    22.3640   206.1430    12.5700     2.6440    90.3630    85.3200 
 2495.5300    97.8740    71.1710    22.3830   204.4710    13.0790     2.6490    91.1910    85.7560 
 2495.6550    97.7420    70.5070    22.3880   202.3370    13.4750     2.6450    93.9600    87.9520 
 2495.7800   100.9980    69.2450    22.3680   200.3840    13.5440     2.6380    99.3040    92.5280 
 2495.9050   106.9630    67.7620    22.3250   198.5500    13.2850     2.6300   106.8210    99.1510 
 2496.0300   115.3520    66.5490    22.2990   197.7410    12.9830     2.6220   115.9870   107.3130 
 2496.1550   123.7660    65.9740    22.2600   197.4280    12.8810     2.6050   124.9550   115.5340 
 2496.2800   127.6010    65.8790    22.2430   195.7020    12.7860     2.5840   130.9340   121.4790 
 2496.4050   121.5920    65.9040    22.2350   192.9630    12.3840     2.5900   130.8580   122.1680 
 2496.5300   106.8670    65.8010    22.2110   193.3320    11.8130     2.5930   124.7990   117.0640 
 2496.6550    89.4040    65.6970    22.5080   195.8570    11.3180     2.5930   115.3460   108.2730 
 2496.7800    75.5860    65.8030    22.7040   197.7530    10.9320     2.5890   105.5150    98.7650 
 2496.9050    66.8130    65.9800    22.7040   203.2820    10.6100     2.5780    97.5110    90.9350 
 2497.0300    62.2300    66.0160    22.7040   214.6200    10.4880     2.5590    92.5760    85.8860 
 2497.1550    62.6340    66.0110    22.7040   228.5630    10.7790     2.5270    92.0570    84.7370 
 2497.2800    67.6810    66.3200    22.7040   240.8500    11.3290     2.4860    96.0390    87.6150 
 2497.4050    74.9020    66.9870    23.1230   248.2160    11.9360     2.4580   105.4390    95.3660 
 2497.5300    78.5190    67.6330    25.4810   249.7840    12.7840     2.4410   120.6830   108.2130 
 2497.6550    77.9330    68.0760    27.7900   248.6170    14.3730     2.3970   136.5580   121.6370 
 2497.7800    78.8960    68.4360    28.1120   243.5260    17.0730     2.3520   142.4670   126.6510 
 2497.9050    88.3500    68.8540    28.0880   234.2730    20.2150     2.3580   130.1630   116.2190 
 2498.0300   105.5290    69.3070    27.6720   228.1310    22.7060     2.4150   104.2120    93.9950 
 2498.1550   124.9060    69.7330    27.1410   230.9590    24.3880     2.4900    75.4060    68.9150 
 2498.2800   138.8190    70.1000    26.6100   239.0810    26.7480     2.5200    53.1680    49.2180 
 2498.4050   144.3350    70.4260    26.1100   249.7180    30.8510     2.4660    38.5090    36.1240 
