~Version Information Section
VERS.       2.00        :Log ASCII Standard-VERSION 2.0
WRAP.       NO          :One line per depth step
VEND.       PRIZM       :GeoGraphix
~Well Information Section
#MNEM.UNIT               VALUE/NAME                 DESCRIPTION
#----.----     ----------------------------------   --------------------
 STRT.M        2458.5300                            :START DEPTH
 STOP.M        2613.6550                            :STOP DEPTH
 STEP.M        0.1250                               :STEP
 NULL.         -999.2500                            :NULL VALUE
 WELL.         T010                                 :WELL
 COMP.                                              :COMPANY
 UWI.          T010                                 :UNIQUE WELL ID
 FLD.                                               :FIELD
 CNTY.                                              :COUNTY
 STAT.                                              :STATE
 CTRY.                                              :COUNTRY
 PROV.                                              :PROVENCE
 SRVC.         GEOGRAPHIX                           :SERVICE
 PDAT.         GR                                   :PERMANENT DATUM
 LMF.          KB                                   :LOG MEASURED FROM
 DMF.          KB                                   :DRILLING MEASURED FROM
 LOC.          TWP        - Range       - Sec       :LOCATION DESCRIPTION
 FTG.                                               :LOCATION FOOTAGE DESCRIPTION
 LOC1.                                              :LOCATION LINE 1
 LOC2.                                              :LOCATION LINE 2
 DATE.                                              :LOG DATE
~Curve Information Section
#MNEM.UNIT              API CODE            CURVE DESCRIPTION
#----.----            LG--CV-CL--M          -------------------------
 DEPT.M                                     :DEPTH
 GR.API                                     :Gamma Ray
 SP.MV                                      :Spontaneous Potential
 CAL.CM                                     :Description
 AC.US/MT                                   :Description
 CNL.                                       :Description
 DEN.GM/CC                                  :Description
 LLD.OHMM                                   :Laterlog-Deep Resistivity
 LLS.OHMM                                   :Laterlog-Shallow Resistivity
~Parameter Information Section
#MNEM.UNIT                  VALUE                   DESCRIPTION
#----.----     ----------------------------------   --------------------
 EKB.          1099.3000                            :ELEVATION OF KELLY BUSHING
 EDF.          -999.2500                            :ELEVATION OF DRILLING FLOOR
 EGL.          -999.2500                            :ELEVATION OF GROUND LEVEL
~A
 2458.5300   117.4490    63.3260    28.3090   253.5650    24.2480     2.4250    28.5780    25.0980 
 2458.6550   112.5810    63.2100    28.3030   260.5920    23.4330     2.3520    25.7570    22.6580 
 2458.7800   108.0600    62.8750    28.1310   267.5900    22.6420     2.2990    22.9310    20.2270 
 2458.9050   104.1350    62.5260    27.9010   274.0850    23.5110     2.2590    20.8220    18.4300 
 2459.0300   101.2940    62.3560    27.6710   275.1250    25.5540     2.2340    19.9280    17.6780 
 2459.1550    99.6600    62.3810    27.4410   267.5570    26.7540     2.2340    20.3710    18.0360 
 2459.2800    98.2710    62.5290    27.2110   257.2480    25.4520     2.2880    21.9950    19.3580 
 2459.4050    96.6810    62.7340    26.9810   246.2770    23.5340     2.3960    24.3570    21.3200 
 2459.5300    95.7490    62.9680    26.7510   232.4580    22.6990     2.5210    26.7480    23.3450 
 2459.6550    96.1510    63.2080    26.5210   226.1950    23.1090     2.5830    27.9290    24.3620 
 2459.7800    97.1480    63.4370    26.2910   241.0320    24.1080     2.5610    27.6070    24.1250 
 2459.9050    98.3110    63.6450    26.3450   272.0010    25.2230     2.4740    26.4840    23.2440 
 2460.0300   100.3640    63.8430    26.7730   296.7040    25.6240     2.3760    25.7760    22.7450 
 2460.1550   103.7550    64.0530    27.2020   308.3430    24.9830     2.3160    25.8560    22.9210 
 2460.2800   107.1110    64.2840    27.6300   308.1940    24.2150     2.3350    26.6660    23.7220 
 2460.4050   108.7910    64.5250    28.0590   296.3590    24.0210     2.4100    27.4360    24.5020 
 2460.5300   109.0040    64.7690    28.4880   278.2500    24.2360     2.4800    27.2570    24.4610 
 2460.6550   108.8370    65.0110    29.1020   269.2890    24.9800     2.4570    25.4140    22.9570 
 2460.7800   108.7940    65.2460    29.5640   270.0170    26.6610     2.3570    22.6810    20.6550 
 2460.9050   108.7730    65.4500    30.7470   273.7280    29.1690     2.2320    20.1270    18.4810 
 2461.0300   108.4270    65.5960    31.6540   279.2230    30.4440     2.1390    18.7190    17.3150 
 2461.1550   108.5910    65.6850    31.5180   285.0560    29.5920     2.1030    18.6380    17.3670 
 2461.2800   111.7660    65.7400    31.2900   286.4420    28.9330     2.1390    19.8680    18.6490 
 2461.4050   118.3240    65.7850    31.0630   285.3260    30.1950     2.2310    21.7020    20.5170 
 2461.5300   124.2350    65.8290    30.7960   284.9170    31.9750     2.3240    23.1590    22.0880 
 2461.6550   124.2450    65.8730    30.1160   278.4060    32.2840     2.3470    23.2380    22.4680 
 2461.7800   119.3070    65.9170    29.3490   265.7450    31.3500     2.3030    21.8460    21.5050 
 2461.9050   113.9480    65.9610    28.7890   255.3420    30.4330     2.2400    19.5920    19.6580 
 2462.0300   111.2060    66.0050    28.9430   251.7200    30.2860     2.2060    17.4260    17.7290 
 2462.1550   109.4210    66.0490    29.1400   252.7580    30.5410     2.2080    15.9020    16.3100 
 2462.2800   107.6330    66.0930    29.3810   258.0610    31.5920     2.2340    15.0180    15.4690 
 2462.4050   106.5870    66.1370    29.9140   264.3830    33.7130     2.2490    14.5910    13.9320 
 2462.5300   106.2320    66.1800    29.9140   273.9110    35.4150     2.2240    14.5400    13.8360 
 2462.6550   105.9670    66.2220    29.8810   284.0170    34.4910     2.1630    14.9910    14.1480 
 2462.7800   105.4060    66.2460    29.6790   285.5510    31.5690     2.1120    16.0540    14.9830 
 2462.9050   104.6750    66.2250    29.4600   284.1450    29.4160     2.1040    17.7460    16.3750 
 2463.0300   103.9670    66.1200    29.2870   281.5580    28.7420     2.1570    20.2760    18.5510 
 2463.1550   103.1020    65.9380    29.0890   268.7320    27.7630     2.2440    23.7080    21.5900 
 2463.2800   101.4400    65.7140    28.8700   252.0710    25.2720     2.3600    27.8930    25.3090 
 2463.4050    98.7890    65.4760    26.5390   240.6040    22.1920     2.5160    32.6740    29.5040 
 2463.5300    96.5050    65.2360    25.8350   230.5390    20.3140     2.6080    37.9050    34.0190 
 2463.6550    96.0910    64.9960    24.7040   224.7780    19.7190     2.6180    43.6800    38.9050 
 2463.7800    97.9580    64.7560    22.7040   226.2030    19.3130     2.6140    50.1390    44.2350 
 2463.9050    99.6430    64.5160    22.7040   227.8400    18.1750     2.6000    57.0190    49.8410 
 2464.0300    99.5120    64.2760    22.7250   228.1420    16.2280     2.5880    64.2650    55.7810 
 2464.1550    97.5890    64.0360    22.7850   227.2000    14.2960     2.5800    72.9720    62.9850 
 2464.2800    95.0920    63.7960    22.7910   222.5210    13.0070     2.5810    84.9850    72.8530 
 2464.4050    91.9050    63.5630    22.7850   214.4850    12.5220     2.5900   102.1240    86.7970 
 2464.5300    85.9550    63.3650    22.6710   209.4790    12.3740     2.6040   124.3750   105.0060 
 2464.6550    76.9770    63.2500    22.5340   207.9680    11.9950     2.6170   149.3220   125.9150 
 2464.7800    67.9710    63.2660    22.4710   205.9650    11.4300     2.6200   171.4630   145.3960 
 2464.9050    63.4440    63.3870    22.4340   203.6610    11.1110     2.6120   184.8180   158.3520 
 2465.0300    63.9360    63.5620    22.4010   202.7850    11.0050     2.6000   188.6470   163.9050 
 2465.1550    66.5080    63.7530    22.3460   199.9270    10.7360     2.5900   185.5580   163.9470 
 2465.2800    67.5900    63.9420    22.3330   194.0540    10.1380     2.5840   177.2360   159.1590 
 2465.4050    66.7420    64.1150    22.2940   189.3870     9.4580     2.5780   158.9720   144.8060 
 2465.5300    66.7850    64.2290    22.1960   190.0910     9.2420     2.5650   127.4390   117.6090 
 2465.6550    71.1390    64.2540    22.0900   197.1630     9.9050     2.5450    91.8640    86.1650 
 2465.7800    80.7630    64.1820    22.1180   209.6610    11.8620     2.5260    62.6820    60.1200 
 2465.9050    91.7670    64.0630    22.2750   221.3920    15.0890     2.5200    45.3100    44.4470 
 2466.0300   100.1200    63.9800    22.4840   230.7520    18.4850     2.5300    36.1930    36.0290 
 2466.1550   105.4860    63.9960    22.6340   237.8160    20.3560     2.5490    32.1710    32.2000 
 2466.2800   110.4540    63.9920    22.8370   238.6830    20.9180     2.5720    31.1140    31.2310 
 2466.4050   114.6560    63.7880    22.9700   235.0720    21.3610     2.5920    31.7610    32.0020 
 2466.5300   115.4590    63.3330    22.9760   233.6940    21.6930     2.6030    33.3470    33.7420 
 2466.6550   112.8720    62.8670    22.9300   234.1120    21.4210     2.6060    35.5890    36.0610 
 2466.7800   108.6210    62.5810    22.9050   232.5180    20.7690     2.6100    38.7040    39.0870 
 2466.9050   103.9540    62.5860    22.9160   227.8940    20.5420     2.6220    42.9410    42.9050 
 2467.0300    98.5700    62.7880    22.8830   222.4540    21.2240     2.6350    47.5590    46.8300 
 2467.1550    92.8470    63.0800    22.7750   218.0870    22.7250     2.6450    51.6030    50.0940 
 2467.2800    89.3680    63.2560    22.6800   216.0020    24.0540     2.6490    54.5250    52.3040 
 2467.4050    89.0170    63.1820    22.6220   215.3280    24.1680     2.6450    56.9170    53.9950 
 2467.5300    90.7940    62.8870    22.5880   214.8480    22.6470     2.6350    59.6370    55.8400 
 2467.6550    91.7500    62.5880    22.5700   213.9630    19.9670     2.6250    63.6640    58.6790 
 2467.7800    89.5880    62.3570    22.5600   211.7980    17.2270     2.6170    69.5930    63.1990 
 2467.9050    83.4840    62.0400    22.5400   207.2260    15.3450     2.6110    77.7090    69.7970 
 2468.0300    75.5630    61.5590    22.5130   202.5890    14.3050     2.6070    86.2130    76.8410 
 2468.1550    68.6380    61.1240    22.4320   200.1160    13.5760     2.6040    92.2970    81.8110 
 2468.2800    65.1970    61.0310    22.3520   199.5560    12.7390     2.6050    92.5440    81.8250 
 2468.4050    64.3780    61.1220    22.2900   199.9810    11.9510     2.6080    87.3080    77.2740 
