~Version Information Section
VERS.       2.00        :Log ASCII Standard-VERSION 2.0
WRAP.       NO          :One line per depth step
VEND.       PRIZM       :GeoGraphix
~Well Information Section
#MNEM.UNIT               VALUE/NAME                 DESCRIPTION
#----.----     ----------------------------------   --------------------
 STRT.M        2458.5300                            :START DEPTH
 STOP.M        2613.6550                            :STOP DEPTH
 STEP.M        0.1250                               :STEP
 NULL.         -999.2500                            :NULL VALUE
 WELL.         T010                                 :WELL
 COMP.                                              :COMPANY
 UWI.          T010                                 :UNIQUE WELL ID
 FLD.                                               :FIELD
 CNTY.                                              :COUNTY
 STAT.                                              :STATE
 CTRY.                                              :COUNTRY
 PROV.                                              :PROVENCE
 SRVC.         GEOGRAPHIX                           :SERVICE
 PDAT.         GR                                   :PERMANENT DATUM
 LMF.          KB                                   :LOG MEASURED FROM
 DMF.          KB                                   :DRILLING MEASURED FROM
 LOC.          TWP        - Range       - Sec       :LOCATION DESCRIPTION
 FTG.                                               :LOCATION FOOTAGE DESCRIPTION
 LOC1.                                              :LOCATION LINE 1
 LOC2.                                              :LOCATION LINE 2
 DATE.                                              :LOG DATE
~Curve Information Section
#MNEM.UNIT              API CODE            CURVE DESCRIPTION
#----.----            LG--CV-CL--M          -------------------------
 DEPT.M                                     :DEPTH
 GR.API                                     :Gamma Ray
 SP.MV                                      :Spontaneous Potential
 CAL.CM                                     :Description
 AC.US/MT                                   :Description
 CNL.                                       :Description
 DEN.GM/CC                                  :Description
 LLD.OHMM                                   :Laterlog-Deep Resistivity
 LLS.OHMM                                   :Laterlog-Shallow Resistivity
~Parameter Information Section
#MNEM.UNIT                  VALUE                   DESCRIPTION
#----.----     ----------------------------------   --------------------
 EKB.          1099.3000                            :ELEVATION OF KELLY BUSHING
 EDF.          -999.2500                            :ELEVATION OF DRILLING FLOOR
 EGL.          -999.2500                            :ELEVATION OF GROUND LEVEL
~A
# ...
 2538.5300    93.4940    69.4090    22.3850   207.1430    12.5350     2.6050    97.1070    90.1070 
 2538.6550    88.2760    68.7000    22.4110   208.0690    12.7630     2.6040   101.4330    93.9550 
 2538.7800    83.2580    67.9580    22.4360   208.8230    13.1410     2.6040   104.0950    96.3830 
 2538.9050    83.3370    67.3840    22.4460   208.9300    13.7870     2.6050   103.6880    95.9540 
 2539.0300    88.4190    67.0540    22.4610   209.5460    14.7420     2.6090   100.2580    92.5990 
 2539.1550    96.7140    66.9780    22.4640   212.2260    15.8350     2.6130    94.9710    87.5600 
 2539.2800   105.0580    67.1100    22.4790   214.5560    16.5360     2.6130    90.5680    83.5970 
 2539.4050   110.6630    67.4200    22.5290   214.1920    16.6270     2.6080    87.9250    81.5040 
 2539.5300   112.3300    67.9120    22.5610   213.5480    16.2690     2.6020    85.6310    79.7890 
 2539.6550   113.9960    68.5240    22.5630   214.9950    16.1530     2.5970    81.9300    76.7730 
 2539.7800   119.3210    69.1670    22.5510   215.8730    16.7110     2.5940    77.1050    72.7850 
 2539.9050   127.3200    69.6680    22.5850   214.6120    17.9970     2.5890    72.2640    68.7000 
 2540.0300   132.7620    69.8770    22.5920   214.6020    19.2830     2.5840    68.0200    64.9590 
 2540.1550   133.5160    69.7300    22.5750   216.1260    19.7500     2.5830    64.9960    62.2030 
 2540.2800   130.3250    69.3810    22.5700   215.8650    19.6020     2.5850    64.0400    61.4090 
 2540.4050   125.5070    69.1130    22.6070   214.1530    19.9380     2.5900    64.4670    61.9550 
 2540.5300   120.4530    69.0190    22.5960   212.7590    21.1120     2.5960    65.0860    62.5670 
 2540.6550   116.5410    68.8450    22.5630   211.6830    22.2400     2.6010    65.3610    62.6590 
 2540.7800   114.9970    68.3460    22.5360   210.6550    22.0640     2.6070    65.9070    62.9330 
 2540.9050   115.0700    67.5850    22.5210   209.2590    19.9140     2.6110    67.5200    64.2250 
 2541.0300   112.4500    67.0140    22.4970   207.4540    16.9030     2.6120    70.7230    66.9860 
 2541.1550   104.1130    66.8770    22.4730   206.0560    14.2130     2.6110    76.1140    71.7670 
 2541.2800    90.9890    67.1450    22.4270   204.3270    12.4310     2.6080    84.5580    79.4320 
 2541.4050    80.0100    67.5590    22.4100   201.3220    11.2730     2.6050    94.3190    88.3230 
 2541.5300    75.5450    68.0190    22.3830   198.8090    10.4820     2.6010   102.4240    95.5530 
 2541.6550    78.8090    68.4590    22.3360   197.9290     9.9020     2.5990   105.8540    98.2300 
 2541.7800    87.2810    68.7570    22.2810   197.2310     9.4230     2.6000   105.6900    97.4850 
 2541.9050    98.0160    68.7980    22.2640   196.6230     9.0890     2.6050   103.7770    95.1260 
 2542.0300   107.4420    68.5730    22.2490   196.6500     9.2600     2.6110   101.3360    92.2170 
 2542.1550   114.9480    68.2040    22.2390   198.2880    10.2200     2.6160    98.5420    88.8920 
 2542.2800   121.9610    67.8110    22.2360   203.0490    12.1410     2.6190    95.7260    85.6260 
 2542.4050   129.0830    67.5240    22.2600   209.5970    14.6910     2.6200    93.3130    83.0510 
 2542.5300   134.0270    67.4030    22.3650   215.2040    16.8840     2.6190    91.5660    81.4350 
 2542.6550   133.5320    67.4820    22.5080   217.5590    16.9350     2.6130    91.3780    81.4950 
 2542.7800   126.6460    67.6780    22.5680   215.6580    14.9350     2.5970    93.0820    83.4320 
 2542.9050   115.3880    67.8530    22.6110   210.7100    12.6260     2.5670    95.6260    86.2880 
 2543.0300   104.6720    67.7780    22.5950   204.8010    11.2580     2.5370    97.2220    88.4110 
 2543.1550    97.2550    67.4440    22.4820   203.5480    10.5900     2.5250    97.7800    89.5730 
 2543.2800    91.6960    67.0330    22.3900   203.8570    10.2570     2.5360    97.8970    90.1820 
 2543.4050    84.6000    66.8190    22.3620   204.7830     9.9150     2.5580    97.3360    89.8520 
 2543.5300    76.8700    66.8410    22.3380   206.3620     9.4250     2.5770    95.5190    88.1350 
 2543.6550    71.6340    67.0450    22.3360   207.4600     8.8670     2.5850    92.4050    85.1860 
 2543.7800    70.2410    67.3940    22.3390   208.5580     8.5370     2.5820    88.2930    81.4310 
 2543.9050    71.7350    67.8420    22.3270   209.2370     8.5620     2.5770    83.3130    76.8780 
 2544.0300    74.5520    68.2120    22.3210   209.4930     8.9000     2.5700    78.3170    72.1410 
 2544.1550    75.9320    68.2730    22.3320   210.0420     9.1900     2.5680    75.8650    69.5690 
 2544.2800    73.8170    68.0410    22.3620   209.8900     9.1020     2.5680    78.0120    71.1300 
 2544.4050    66.8300    67.7450    22.3820   209.1110     8.4650     2.5650    86.2560    78.2140 
 2544.5300    57.4880    67.5730    22.3960   208.3480     7.5660     2.5580    98.7380    89.1510 
 2544.6550    49.3340    67.4320    22.4250   207.2500     6.8180     2.5570   112.3090   101.1400 
 2544.7800    46.2670    67.0860    22.4540   205.8170     6.5150     2.5700   121.3540   109.1470 
 2544.9050    48.4830    66.5460    22.5060   205.8890     6.4590     2.5880   122.9650   110.5000 
 2545.0300    53.5590    66.0290    22.5140   208.9790     6.4710     2.5980   117.6970   105.6130 
 2545.1550    56.9070    65.8420    22.4870   213.6690     6.5480     2.5930   110.2260    98.6120 
 2545.2800    56.7730    66.0180    22.4580   216.7140     6.7730     2.5810   105.3130    93.7830 
 2545.4050    54.1380    66.4150    22.4320   216.9980     7.0970     2.5590   105.6850    93.6070 
 2545.5300    51.7590    66.7510    22.3920   215.8120     7.3180     2.5140   110.7150    97.5740 
 2545.6550    50.9750    66.8690    22.3730   213.7690     7.4480     2.4480   117.5320   103.1710 
 2545.7800    51.7740    66.7420    24.1060   211.2690     7.6170     2.3670   123.2670   107.9720 
 2545.9050    53.0580    66.5860    25.3310   210.8250     7.9110     2.2920   126.9210   111.2220 
 2546.0300    53.9400    66.6170    27.4230   212.6010     8.3090     2.2390   129.4930   113.8030 
 2546.1550    55.1670    66.9280    28.0960   214.1410     8.6290     2.2130   133.4580   117.7480 
 2546.2800    59.4490    67.3190    28.1120   213.1940     8.6470     2.1990   139.6570   123.5800 
 2546.4050    69.3240    67.6650    28.1120   210.3730     8.4310     2.1910   144.9060   128.4580 
 2546.5300    85.3660    68.0990    27.5580   208.6600     8.3290     2.1970   142.1200   126.1810 
 2546.6550   104.8490    68.8660    25.8910   209.0760     8.6050     2.2400   129.8960   115.5840 
 2546.7800   126.0720    69.9460    24.7410   209.7140     9.5320     2.3320   111.6480    99.7320 
 2546.9050   146.4230    70.8820    23.4590   213.0380    11.6060     2.4470    94.0440    84.5100 
 2547.0300   162.3350    71.4810    22.2830   217.8790    15.1800     2.5370    80.1390    72.5800 
 2547.1550   170.3870    71.9190    22.1030   222.6970    19.9430     2.5830    70.9550    64.8130 
 2547.2800   170.7910    72.4150    22.1030   224.6970    22.8820     2.6040    65.9400    60.7210 
 2547.4050   166.6950    72.9650    22.1030   224.6370    22.3340     2.6100    63.6980    59.0420 
 2547.5300   162.0200    73.5220    22.1030   225.2150    20.5370     2.6060    62.8470    58.4460 
 2547.6550   159.5400    74.0360    22.1030   226.8910    19.6910     2.6010    62.4800    58.0910 
 2547.7800   160.3240    74.4670    22.1030   228.3500    19.4010     2.5990    62.7650    58.1620 
 2547.9050   164.5680    74.7970    22.1030   229.2280    18.3940     2.6000    64.6430    59.5510 
 2548.0300   170.7120    75.0840    22.1420   229.4860    16.4590     2.6000    69.0810    63.1250 
 2548.1550   176.5700    75.3650    22.8370   226.8330    14.1580     2.5970    77.3530    70.0100 
 2548.2800   177.6180    75.6510    22.8470   221.0290    12.2580     2.5910    90.7600    81.4000 
 2548.4050   172.8030    75.9360    22.7960   216.3360    11.1340     2.5850   108.2640    96.3700 
