~Version Information Section
VERS.       2.00        :Log ASCII Standard-VERSION 2.0
WRAP.       NO          :One line per depth step
VEND.       PRIZM       :GeoGraphix
~Well Information Section
#MNEM.UNIT               VALUE/NAME                 DESCRIPTION
#----.----     ----------------------------------   --------------------
 STRT.M        2458.5300                            :START DEPTH
 STOP.M        2613.6550                            :STOP DEPTH
 STEP.M        0.1250                               :STEP
 NULL.         -999.2500                            :NULL VALUE
 WELL.         T010                                 :WELL
 COMP.                                              :COMPANY
 UWI.          T010                                 :UNIQUE WELL ID
 FLD.                                               :FIELD
 CNTY.                                              :COUNTY
 STAT.                                              :STATE
 CTRY.                                              :COUNTRY
 PROV.                                              :PROVENCE
 SRVC.         GEOGRAPHIX                           :SERVICE
 PDAT.         GR                                   :PERMANENT DATUM
 LMF.          KB                                   :LOG MEASURED FROM
 DMF.          KB                                   :DRILLING MEASURED FROM
 LOC.          TWP        - Range       - Sec       :LOCATION DESCRIPTION
 FTG.                                               :LOCATION FOOTAGE DESCRIPTION
 LOC1.                                              :LOCATION LINE 1
 LOC2.                                              :LOCATION LINE 2
 DATE.                                              :LOG DATE
~Curve Information Section
#MNEM.UNIT              API CODE            CURVE DESCRIPTION
#----.----            LG--CV-CL--M          -------------------------
 DEPT.M                                     :DEPTH
 GR.API                                     :Gamma Ray
 SP.MV                                      :Spontaneous Potential
 CAL.CM                                     :Description
 AC.US/MT                                   :Description
 CNL.                                       :Description
 DEN.GM/CC                                  :Description
 LLD.OHMM                                   :Laterlog-Deep Resistivity
 LLS.OHMM                                   :Laterlog-Shallow Resistivity
~Parameter Information Section
#MNEM.UNIT                  VALUE                   DESCRIPTION
#----.----     ----------------------------------   --------------------
 EKB.          1099.3000                            :ELEVATION OF KELLY BUSHING
 EDF.          -999.2500                            :ELEVATION OF DRILLING FLOOR
 EGL.          -999.2500                            :ELEVATION OF GROUND LEVEL
~A
# ...
 2568.5300    98.6500    81.4890    22.3440   202.2910    19.0380     2.6290   113.1440   103.1380 
 2568.6550   104.5610    81.8380    22.3420   204.5520    19.7850     2.6240   107.6800    96.1580 
 2568.7800   114.1500    82.3050    22.3620   208.5510    20.8590     2.6180   103.8200    90.5950 
 2568.9050   125.7800    82.6340    22.4080   214.9000    21.8180     2.6080   103.7380    88.5320 
 2569.0300   136.1070    82.6310    22.5030   220.7370    22.4210     2.5950   109.1410    91.3960 
 2569.1550   141.8270    82.4350    22.6140   225.4130    23.1340     2.5710   119.9850    99.0290 
 2569.2800   144.0490    82.3940    22.6920   234.2840    24.5830     2.5310   132.5130   108.4190 
 2569.4050   146.1090    82.6830    22.7520   245.4050    26.9050     2.4800   139.6170   114.1660 
 2569.5300   148.6970    83.0490    22.9210   249.7950    29.0750     2.4380   135.2050   111.4770 
 2569.6550   149.9040    83.2780    23.1650   250.1820    29.5040     2.4190   120.6540   101.1580 
 2569.7800   149.1570    83.3830    23.2250   249.6020    28.0560     2.4370   102.3130    87.8550 
 2569.9050   148.1660    83.4800    23.2280   242.8730    26.8130     2.4870    87.4450    77.0930 
 2570.0300   147.9760    83.5880    23.2230   232.3840    26.2750     2.5510    78.2120    70.5750 
 2570.1550   147.4490    83.6990    23.1360   226.5120    25.7550     2.6000    74.7130    68.5060 
 2570.2800   146.7140    83.8100    22.9030   223.8770    24.8960     2.6270    74.6030    69.2180 
 2570.4050   147.3310    83.9210    22.7910   222.1810    24.2540     2.6420    76.1390    71.3940 
 2570.5300   149.5890    84.0310    22.7670   222.2980    24.3740     2.6470    77.6450    73.6080 
 2570.6550   152.7060    84.1320    22.7320   223.4080    24.7930     2.6440    78.5020    75.1840 
 2570.7800   155.0720    84.2000    22.7300   224.3050    24.9910     2.6380    78.5460    75.8100 
 2570.9050   154.7970    84.1960    22.7510   224.0690    24.9000     2.6360    77.8740    75.4420 
 2571.0300   153.1390    84.1190    22.7710   221.6080    24.6300     2.6340    76.7930    74.3630 
 2571.1550   153.0890    83.9900    22.7570   219.1670    24.1720     2.6280    75.7210    73.0350 
 2571.2800   154.9090    83.8450    22.7260   219.7560    23.6130     2.6220    74.9650    71.8720 
 2571.4050   156.0470    83.6870    22.6820   222.9430    23.2530     2.6190    74.5790    70.9440 
 2571.5300   153.5450    83.4840    22.6820   229.1080    23.4020     2.6210    74.6980    70.3720 
 2571.6550   149.0920    83.2260    22.7570   235.1390    23.9850     2.6220    75.4090    70.2860 
 2571.7800   144.9850    82.9280    22.8870   235.9850    24.6840     2.6210    76.6960    70.6900 
 2571.9050   141.9200    82.6140    22.9570   232.2950    24.8900     2.6170    78.3880    71.3660 
 2572.0300   139.7750    82.3110    22.9800   227.4350    24.4220     2.6090    80.4150    72.2180 
 2572.1550   138.1040    82.0850    23.0040   221.3990    23.5270     2.5930    83.3740    73.7650 
 2572.2800   135.8000    82.0910    23.7040   216.4140    23.0160     2.5460    89.2080    77.6160 
 2572.4050   132.5210    82.4120    25.5930   214.4810    23.7110     2.4540    99.7820    85.2120 
 2572.5300   127.2590    83.0120    27.5900   221.1340    26.5000     2.3310   115.2040    96.5170 
 2572.6550   119.7860    83.5340    29.7380   238.3390    31.5840     2.1930   129.9310   107.3210 
 2572.7800   113.2320    83.5940    29.6860   255.0290    37.2720     2.0700   138.6380   113.8790 
 2572.9050   113.0870    83.0550    29.4040   262.0340    38.3860     2.0400   138.4250   114.4030 
 2573.0300   120.4680    82.4950    28.8240   263.3340    34.7060     2.0990   131.4640   110.2450 
 2573.1550   132.0810    82.4490    27.5090   255.5510    30.2790     2.2080   119.3420   101.9380 
 2573.2800   141.7400    83.1340    26.3740   236.5740    27.2410     2.3430   103.8570    90.3340 
 2573.4050   146.5070    84.1190    25.3880   221.5020    25.1390     2.4660    89.7150    79.3970 
 2573.5300   147.4710    85.0190    22.6470   218.3050    23.9890     2.5520    80.5450    72.2670 
 2573.6550   147.8550    85.5020    22.3410   221.6310    23.9960     2.5910    76.9690    69.5190 
 2573.7800   149.1900    85.5200    22.0120   225.8110    24.5580     2.5990    76.4040    69.0330 
 2573.9050   150.7760    85.1550    21.9800   230.7280    25.0120     2.5900    77.1130    69.4190 
 2574.0300   152.2810    84.7220    22.7900   237.2660    25.1240     2.5670    77.7160    69.6230 
 2574.1550   153.9770    84.4770    22.8830   243.2840    25.2400     2.5350    77.4820    69.0560 
 2574.2800   153.9160    84.4940    23.0440   245.7250    25.2640     2.5080    76.2710    67.6530 
 2574.4050   150.4340    84.5550    23.1190   244.9740    24.6020     2.5130    74.8700    66.1830 
 2574.5300   146.5130    84.3860    23.1530   243.1460    23.3890     2.5480    74.0770    65.3600 
 2574.6550   146.9280    83.7290    23.1480   240.3160    22.4840     2.5790    75.2600    66.3430 
 2574.7800   149.2580    82.7250    23.1090   236.2190    22.2980     2.5930    80.3810    70.7290 
 2574.9050   147.5880    81.6770    23.0660   232.5270    22.7800     2.6030    91.7930    80.4650 
 2575.0300   137.4920    80.9600    22.9660   228.4880    23.4010     2.6140   109.4890    95.5580 
 2575.1550   123.9680    80.6380    22.9190   220.7920    23.9440     2.6220   125.4650   109.2610 
 2575.2800   115.4000    80.6470    22.8670   213.1130    24.4330     2.6250   130.2200   113.5260 
 2575.4050   119.4620    80.9060    22.7330   213.7470    24.7270     2.6280   119.5140   104.6890 
 2575.5300   133.2920    81.3720    22.5720   220.6410    24.7770     2.6270   100.5020    88.7130 
 2575.6550   148.7360    82.0130    22.6040   229.4160    24.6590     2.6210    82.0250    73.0060 
 2575.7800   158.0660    82.7290    22.7260   237.8610    24.4780     2.6120    70.0360    62.6620 
 2575.9050   161.6950    83.4560    22.8510   242.0520    24.1590     2.6020    64.8870    58.1300 
 2576.0300   161.8340    84.1840    22.9820   238.1660    23.4440     2.5980    65.8640    59.0770 
 2576.1550   159.3770    84.8990    23.0940   231.9080    22.5680     2.6010    70.0340    63.0980 
 2576.2800   154.5610    85.5380    23.0010   228.0830    21.8470     2.6090    75.3130    68.2790 
 2576.4050   149.5840    86.0050    22.8800   227.1680    21.6910     2.6160    80.6390    73.4840 
 2576.5300   146.5140    86.3490    22.8370   226.0200    21.9370     2.6210    86.4830    79.0370 
 2576.6550   144.6720    86.6430    22.8220   221.8040    21.8490     2.6280    93.6450    85.6790 
 2576.7800   142.0950    86.8890    22.8070   214.6140    20.6840     2.6370   102.9020    93.9690 
 2576.9050   137.4620    87.0000    22.7220   208.4780    18.9180     2.6420   114.6730   103.9170 
 2577.0300   129.8370    86.9410    22.5580   204.7480    17.2810     2.6400   128.6310   115.0030 
 2577.1550   121.1090    86.8820    22.4920   203.2170    16.4880     2.6330   141.1650   124.4580 
 2577.2800   116.0750    87.0120    22.4180   205.1120    16.7750     2.6270   147.7840   129.0930 
 2577.4050   120.3830    87.3840    22.3900   211.6890    18.3110     2.6230   144.4440   126.1290 
 2577.5300   132.6900    87.8170    22.4410   221.0810    20.6920     2.6200   132.2590   116.7040 
 2577.6550   146.7850    88.0870    22.5680   230.4570    22.9910     2.6170   115.2570   103.9910 
 2577.7800   155.8780    87.9440    22.7690   238.3700    23.9690     2.6120    98.8500    92.2270 
 2577.9050   158.2090    87.4080    22.8810   244.6540    23.8650     2.6070    87.6690    84.9830 
 2578.0300   154.9280    86.7180    23.0090   246.1260    23.5630     2.6020    83.4480    83.7010 
 2578.1550   148.7130    86.3260    23.1290   239.7980    23.7340     2.5970    86.7640    89.0120 
 2578.2800   143.1270    86.4100    23.1700   231.0270    24.1390     2.5940    95.2860    98.9830 
 2578.4050   140.5000    86.8660    23.0190   226.7240    24.4130     2.5930   105.6500   110.5070 
