~Version Information Section
VERS.       2.00        :Log ASCII Standard-VERSION 2.0
WRAP.       NO          :One line per depth step
VEND.       PRIZM       :GeoGraphix
~Well Information Section
#MNEM.UNIT               VALUE/NAME                 DESCRIPTION
#----.----     ----------------------------------   --------------------
 STRT.M        2458.5300                            :START DEPTH
 STOP.M        2613.6550                            :STOP DEPTH
 STEP.M        0.1250                               :STEP
 NULL.         -999.2500                            :NULL VALUE
 WELL.         T010                                 :WELL
 COMP.                                              :COMPANY
 UWI.          T010                                 :UNIQUE WELL ID
 FLD.                                               :FIELD
 CNTY.                                              :COUNTY
 STAT.                                              :STATE
 CTRY.                                              :COUNTRY
 PROV.                                              :PROVENCE
 SRVC.         GEOGRAPHIX                           :SERVICE
 PDAT.         GR                                   :PERMANENT DATUM
 LMF.          KB                                   :LOG MEASURED FROM
 DMF.          KB                                   :DRILLING MEASURED FROM
 LOC.          TWP        - Range       - Sec       :LOCATION DESCRIPTION
 FTG.                                               :LOCATION FOOTAGE DESCRIPTION
 LOC1.                                              :LOCATION LINE 1
 LOC2.                                              :LOCATION LINE 2
 DATE.                                              :LOG DATE
~Curve Information Section
#MNEM.UNIT              API CODE            CURVE DESCRIPTION
#----.----            LG--CV-CL--M          -------------------------
 DEPT.M                                     :DEPTH
 GR.API                                     :Gamma Ray
 SP.MV                                      :Spontaneous Potential
 CAL.CM                                     :Description
 AC.US/MT                                   :Description
 CNL.                                       :Description
 DEN.GM/CC                                  :Description
 LLD.OHMM                                   :Laterlog-Deep Resistivity
 LLS.OHMM                                   :Laterlog-Shallow Resistivity
~Parameter Information Section
#MNEM.UNIT                  VALUE                   DESCRIPTION
#----.----     ----------------------------------   --------------------
 EKB.          1099.3000                            :ELEVATION OF KELLY BUSHING
 EDF.          -999.2500                            :ELEVATION OF DRILLING FLOOR
 EGL.          -999.2500                            :ELEVATION OF GROUND LEVEL
~A
# ...
 2498.5300   142.8970    70.7530    26.3250   266.4130    35.7340     2.3290    30.5250    29.0160 
 2498.6550   140.9990    71.0950    26.8880   285.8050    37.7150     2.1830    26.7400    25.6790 
 2498.7800   141.2720    71.4450    27.2830   295.5770    37.0180     2.0870    25.8520    24.9360 
 2498.9050   142.8470    71.7970    27.6530   290.2880    36.8810     2.0620    26.3870    25.4780 
 2499.0300   144.1420    72.1490    27.5430   288.6080    36.8860     2.0730    27.1110    26.1540 
 2499.1550   145.8570    72.5010    27.0950   297.7160    35.0240     2.0840    27.7540    26.6910 
 2499.2800   150.0030    72.8560    26.6470   301.1130    30.8740     2.0810    28.6180    27.4140 
 2499.4050   156.2620    73.2170    26.3180   296.3950    26.4640     2.0820    29.9130    28.8870 
 2499.5300   162.0180    73.5910    26.3090   289.3070    23.8970     2.1150    31.9050    32.8170 
 2499.6550   162.1340    73.9770    26.3090   271.3230    23.0340     2.1840    35.1780    36.0190 
 2499.7800   155.5280    74.3700    28.2470   243.5750    23.0720     2.2610    39.7960    40.4390 
 2499.9050   146.2120    74.7660    29.0960   225.9030    23.6590     2.2950    44.5470    44.8120 
 2500.0300   139.6420    75.1620    29.2370   222.2060    24.6190     2.2940    47.3410    47.1130 
 2500.1550   136.9930    75.5580    29.0860   221.5850    26.2300     2.2950    47.2010    46.4560 
 2500.2800   137.5660    75.9540    28.0180   220.6480    28.5890     2.3110    44.4310    43.2430 
 2500.4050   139.6690    76.3450    27.0220   223.2630    31.2800     2.2990    40.8530    39.2860 
 2500.5300   142.3340    76.7140    27.4710   226.6960    33.6470     2.2270    37.5210    35.6550 
 2500.6550   142.4170    77.0140    28.9300   231.1970    34.3920     2.1080    35.0880    33.0420 
 2500.7800   137.9830    77.2280    32.5600   241.0030    34.1460     1.9890    33.8590    31.6910 
 2500.9050   130.3400    77.3670    32.0440   248.3730    33.7710     1.9070    34.4110    32.0960 
 2501.0300   125.9290    77.4770    29.3680   245.9150    31.8920     1.8790    36.8150    34.2650 
 2501.1550   128.2960    77.5820    25.8470   240.6260    27.9800     1.9060    40.4960    37.6310 
 2501.2800   135.0690    77.6870    23.9850   233.1740    24.3590     1.9910    45.1640    41.8620 
 2501.4050   139.9910    77.7930    23.6270   222.2040    22.9040     2.1040    50.4370    46.5450 
 2501.5300   142.2260    77.8990    23.2680   213.0410    23.0520     2.1980    55.2600    50.7720 
 2501.6550   144.4760    78.0040    23.0140   208.0140    23.4850     2.2220    57.4460    52.6620 
 2501.7800   147.4570    78.1100    23.0570   210.8690    23.6340     2.1800    56.4700    51.7660 
 2501.9050   148.3010    78.2150    23.1120   224.7680    24.3640     2.1240    53.2470    48.8910 
 2502.0300   145.1180    78.3190    23.1660   236.6300    26.5100     2.1240    49.4180    45.4830 
 2502.1550   139.8760    78.4130    23.2210   243.7450    28.8160     2.1830    46.0730    42.4910 
 2502.2800   134.9250    78.4850    23.2760   251.7080    29.8690     2.2510    43.8780    40.5150 
 2502.4050   132.1910    78.5230    23.3050   247.3120    30.8080     2.3060    43.3810    40.1460 
 2502.5300   131.1380    78.5380    23.3050   229.3380    32.6660     2.3780    44.0910    40.9630 
 2502.6550   131.0750    78.5410    23.2760   222.0340    33.9380     2.4450    45.4330    42.3720 
 2502.7800   131.1640    78.5410    23.0650   228.6850    32.8480     2.4830    47.5030    44.3960 
 2502.9050   129.9040    78.5410    22.8330   229.6050    30.6600     2.5190    50.3510    47.1700 
 2503.0300   125.8130    78.5410    22.6010   225.5470    29.1420     2.5590    52.8270    49.7240 
 2503.1550   121.2730    78.5410    22.3690   227.0540    28.3350     2.5850    53.1450    50.2650 
 2503.2800   120.4700    78.5410    22.1370   227.2000    27.6360     2.5800    50.9120    48.2770 
 2503.4050   125.3990    78.5410    22.7770   227.8630    26.8550     2.5330    47.1490    44.6850 
 2503.5300   130.8210    78.5410    22.7850   236.6810    26.3540     2.4760    43.7930    41.4250 
 2503.6550   132.6800    78.5390    22.8130   247.3420    25.3230     2.4510    42.1710    39.7630 
 2503.7800   131.3830    78.5320    22.9230   250.7920    22.6510     2.4840    43.7300    41.0030 
 2503.9050   130.0400    78.5120    23.1550   247.6060    20.2880     2.5500    48.8980    45.5450 
 2504.0300   130.2780    78.4760    23.2150   237.8670    19.9780     2.6110    56.8750    52.6760 
 2504.1550   132.1080    78.4280    23.1310   229.7410    21.4870     2.6360    64.1250    59.2010 
 2504.2800   133.8060    78.3760    22.9610   228.3640    22.9610     2.6310    68.2310    62.9380 
 2504.4050   134.0870    78.3230    22.8560   231.3150    22.5210     2.6050    69.4630    64.1200 
 2504.5300   133.7380    78.2710    22.8040   235.0240    21.3080     2.5720    70.8970    65.4410 
 2504.6550   133.4210    78.2180    22.8520   236.6770    20.7760     2.5430    73.9110    68.0680 
 2504.7800   134.0940    78.1650    22.9410   234.8310    21.4230     2.5420    77.2160    70.8860 
 2504.9050   135.8570    78.1120    22.9530   232.0460    22.8960     2.5620    78.1640    71.6990 
 2505.0300   137.8320    78.0590    22.9110   228.4400    24.7590     2.5690    75.4490    69.4580 
 2505.1550   138.3110    78.0090    22.8790   224.5260    26.2140     2.5420    69.7520    64.7480 
 2505.2800   136.2420    77.9740    22.8010   222.2160    26.6270     2.4800    63.7920    59.7700 
 2505.4050   132.9410    77.9880    23.2320   219.4930    26.2290     2.3870    58.7990    55.4370 
 2505.5300   130.8890    78.0990    24.0060   221.4430    26.2280     2.3200    54.1310    51.1320 
 2505.6550   130.0360    78.3020    25.4840   235.5330    27.1520     2.2510    49.0120    46.3280 
 2505.7800   130.1650    78.5670    27.1030   252.6950    28.6780     2.1510    43.8670    41.6200 
 2505.9050   131.0590    78.8520    28.6550   258.8160    29.2240     2.0750    40.1290    38.3960 
 2506.0300   133.0680    79.1400    28.6740   259.1630    28.1460     2.0400    38.4830    37.2290 
 2506.1550   136.2160    79.4280    27.4320   253.2440    26.6860     2.0470    38.9420    38.0310 
 2506.2800   138.2060    79.7160    25.8050   237.2110    25.8900     2.0970    40.2940    39.5990 
 2506.4050   137.4290    80.0040    25.5100   224.8610    25.6940     2.1890    41.4060    40.8660 
 2506.5300   134.1940    80.2920    25.2140   227.8860    26.0960     2.2960    41.4600    41.0310 
 2506.6550   131.2650    80.5800    24.4480   231.5770    26.8890     2.3440    40.8990    40.4940 
 2506.7800   130.1110    80.8680    23.3050   230.6510    27.8660     2.3530    40.5140    40.0200 
 2506.9050   130.4100    81.1500    23.3050   230.9120    28.7700     2.3900    41.0220    40.3550 
 2507.0300   131.2370    81.4060    23.3050   231.3160    29.3560     2.4150    42.2310    41.3520 
 2507.1550   131.5600    81.5930    22.8480   232.0250    29.4970     2.4380    43.8690    42.7220 
 2507.2800   130.2920    81.6750    22.8590   240.7870    29.0270     2.5010    45.4510    44.0030 
 2507.4050   127.7000    81.6750    22.8670   252.3090    28.1670     2.5740    46.3480    44.6540 
 2507.5300   125.4450    81.6310    23.0950   259.8800    27.0310     2.6130    46.1400    44.3220 
 2507.6550   125.6690    81.5770    23.2510   265.8070    25.3490     2.6080    45.4420    43.6120 
 2507.7800   128.7860    81.5210    23.3560   265.7310    23.2410     2.5710    45.0410    43.2560 
 2507.9050   134.4900    81.4650    23.4550   256.5170    21.6720     2.5270    45.2580    43.5450 
 2508.0300   139.3760    81.4100    23.4780   248.3330    21.2040     2.5010    45.9770    44.3580 
 2508.1550   140.3310    81.3540    23.2720   240.0960    21.6170     2.5040    47.3330    45.8280 
 2508.2800   136.7040    81.2990    23.1280   229.3610    22.3090     2.5290    49.1220    47.7700 
 2508.4050   132.3340    81.2430    23.0090   223.2950    22.9130     2.5590    50.4050    49.2490 
