~Version Information Section
VERS.       2.00        :Log ASCII Standard-VERSION 2.0
WRAP.       NO          :One line per depth step
VEND.       PRIZM       :GeoGraphix
~Well Information Section
#MNEM.UNIT               VALUE/NAME                 DESCRIPTION
#----.----     ----------------------------------   --------------------
 STRT.M        2458.5300                            :START DEPTH
 STOP.M        2613.6550                            :STOP DEPTH
 STEP.M        0.1250                               :STEP
 NULL.         -999.2500                            :NULL VALUE
 WELL.         T010                                 :WELL
 COMP.                                              :COMPANY
 UWI.          T010                                 :UNIQUE WELL ID
 FLD.                                               :FIELD
 CNTY.                                              :COUNTY
 STAT.                                              :STATE
 CTRY.                                              :COUNTRY
 PROV.                                              :PROVENCE
 SRVC.         GEOGRAPHIX                           :SERVICE
 PDAT.         GR                                   :PERMANENT DATUM
 LMF.          KB                                   :LOG MEASURED FROM
 DMF.          KB                                   :DRILLING MEASURED FROM
 LOC.          TWP        - Range       - Sec       :LOCATION DESCRIPTION
 FTG.                                               :LOCATION FOOTAGE DESCRIPTION
 LOC1.                                              :LOCATION LINE 1
 LOC2.                                              :LOCATION LINE 2
 DATE.                                              :LOG DATE
~Curve Information Section
#MNEM.UNIT              API CODE            CURVE DESCRIPTION
#----.----            LG--CV-CL--M          -------------------------
 DEPT.M                                     :DEPTH
 GR.API                                     :Gamma Ray
 SP.MV                                      :Spontaneous Potential
 CAL.CM                                     :Description
 AC.US/MT                                   :Description
 CNL.                                       :Description
 DEN.GM/CC                                  :Description
 LLD.OHMM                                   :Laterlog-Deep Resistivity
 LLS.OHMM                                   :Laterlog-Shallow Resistivity
~Parameter Information Section
#MNEM.UNIT                  VALUE                   DESCRIPTION
#----.----     ----------------------------------   --------------------
 EKB.          1099.3000                            :ELEVATION OF KELLY BUSHING
 EDF.          -999.2500                            :ELEVATION OF DRILLING FLOOR
 EGL.          -999.2500                            :ELEVATION OF GROUND LEVEL
~A
# ...
 2478.5300    69.7590    65.6300    23.6400   190.0590    11.7930     2.6120   118.8100   118.4150 
 2478.6550    72.9720    65.3310    23.8900   187.6930    11.5070     2.6090   119.5520   119.7430 
 2478.7800    80.1730    64.9310    24.2230   191.8460    12.7940     2.6200   102.7650   103.2690 
 2478.9050    90.6870    64.8120    24.6460   210.1660    15.3020     2.6310    76.0180    76.6460 
 2479.0300   103.8190    65.1960    26.2680   240.2760    18.9720     2.6180    52.3310    53.1320 
 2479.1550   117.0850    65.7540    26.1640   259.1730    24.0330     2.5510    39.2200    40.2980 
 2479.2800   128.0400    66.0720    28.9000   267.1300    30.3910     2.4580    34.2470    35.5700 
 2479.4050   134.0480    65.9050    28.6680   272.6980    35.5570     2.4200    34.0400    35.5730 
 2479.5300   135.3660    65.4670    28.4360   265.0720    37.6520     2.4480    36.4830    38.2810 
 2479.6550   133.9610    65.0180    28.2050   245.7200    38.8050     2.4830    40.1750    42.3250 
 2479.7800   132.9840    64.8040    27.9730   236.7240    40.3640     2.4960    42.9790    45.4980 
 2479.9050   133.5630    64.8320    27.7110   236.6590    40.0160     2.5010    44.4670    47.2900 
 2480.0300   136.2910    65.0000    26.8260   234.1520    36.5750     2.5340    45.6540    48.7280 
 2480.1550   140.3180    65.2200    25.8410   229.5040    33.1620     2.5870    47.7520    50.9950 
 2480.2800   144.0390    65.5480    24.9980   225.8590    31.8940     2.6250    50.5810    53.7980 
 2480.4050   146.7910    66.0910    24.5300   223.1660    31.5170     2.6240    53.4030    56.3040 
 2480.5300   148.9610    66.8220    24.0700   220.8080    29.5600     2.6160    55.2940    57.6490 
 2480.6550   150.7710    67.6380    23.6100   218.5520    26.1560     2.6220    55.6930    57.3760 
 2480.7800   150.8660    68.4640    23.1500   218.0890    23.1680     2.6280    54.3980    55.3750 
 2480.9050   148.7990    69.2720    22.9610   219.9860    21.7210     2.6300    52.7100    53.0520 
 2481.0300   145.7620    70.0660    22.8470   222.0900    21.1810     2.6300    52.2560    52.0840 
 2481.1550   141.9980    70.8260    22.7340   221.0790    19.3050     2.6280    54.9000    54.2920 
 2481.2800   137.1120    71.4510    22.6200   217.4760    15.6580     2.6220    61.3400    60.2370 
 2481.4050   130.9750    71.7850    22.5060   212.5550    12.0560     2.6160    72.9300    71.2260 
 2481.5300   124.2380    71.7200    22.3930   206.1340    10.0130     2.6120    89.6850    87.3980 
 2481.6550   117.6550    71.4210    22.2790   199.3980     9.1610     2.6110   106.7080   104.0650 
 2481.7800   111.9780    71.1580    22.1650   195.8780     9.0530     2.6110   117.9840   115.3330 
 2481.9050   107.8540    71.2170    22.1030   195.7090     9.2070     2.6100   120.7070   118.2920 
 2482.0300   104.0850    71.6160    22.1030   195.9530     9.3720     2.6100   117.9340   115.7750 
 2482.1550    99.6510    72.2250    22.3170   196.0350     9.4310     2.6120   113.2740   111.1670 
 2482.2800    96.4570    72.8740    22.1990   196.5130     9.4470     2.6140   109.1220   106.8130 
 2482.4050    96.9460    73.5770    22.0850   196.9080     9.5760     2.6140   106.1770   103.5700 
 2482.5300   103.9010    74.4360    21.9860   197.7600     9.8780     2.6140   104.5560   101.8250 
 2482.6550   117.5430    75.3500    21.8870   198.9950    10.2940     2.6170   103.0000   100.4030 
 2482.7800   139.1990    76.0710    21.8030   200.1420    10.8860     2.6210   100.6700    98.3390 
 2482.9050   167.9670    76.2950    22.2630   202.7170    11.7220     2.6250    98.4220    96.2910 
 2483.0300   192.1680    76.0680    22.2900   206.0150    12.6190     2.6260    97.9460    95.8950 
 2483.1550   198.4770    75.5590    22.3530   206.9820    13.2960     2.6220    99.7230    97.6530 
 2483.2800   182.0480    75.0250    22.3920   206.6700    13.5920     2.6120   102.8080   100.7610 
 2483.4050   156.0750    74.5630    22.4160   206.6630    13.5440     2.6020   106.1380   104.3050 
 2483.5300   134.9040    74.1070    22.4100   204.6780    13.2680     2.5970   108.8030   107.4080 
 2483.6550   123.8770    73.5520    22.4040   201.8460    13.1480     2.5980   109.2570   108.3020 
 2483.7800   119.0900    72.9690    22.3610   201.2880    13.3890     2.6000   107.0200   106.2430 
 2483.9050   116.0440    72.5940    22.3230   202.3410    13.9300     2.6030   103.4750   102.5110 
 2484.0300   112.2080    72.5720    22.3000   203.2300    14.2890     2.6050   101.6790   100.3270 
 2484.1550   107.1780    72.8310    22.3170   203.9490    14.1340     2.6030   103.3620   101.6050 
 2484.2800    99.7670    73.1850    22.3410   203.5970    13.4110     2.5940   110.1570   108.1130 
 2484.4050    90.4240    73.4820    22.3510   201.6460    12.3090     2.5930   122.2310   119.7520 
 2484.5300    80.9050    73.7210    22.3420   198.6370    11.0430     2.5930   139.7730   136.4790 
 2484.6550    74.8300    73.9670    22.3210   195.6600     9.8890     2.5970   160.8580   156.6700 
 2484.7800    72.6310    74.2220    22.2640   192.9640     8.9810     2.6020   180.6130   175.9420 
 2484.9050    71.9240    74.4060    22.2260   190.1960     8.4370     2.6080   194.2320   189.5930 
 2485.0300    69.4530    74.4300    22.1600   188.0090     8.2970     2.6130   199.4030   194.8700 
 2485.1550    65.4470    74.3010    22.1120   187.0810     8.4330     2.6150   197.7210   193.2430 
 2485.2800    62.2480    74.0110    22.0830   187.1000     8.6240     2.6150   189.6960   185.5820 
 2485.4050    62.5600    73.5370    22.0600   187.8830     8.6470     2.6120   176.0940   172.7100 
 2485.5300    66.4160    72.9000    22.0620   190.2530     8.5620     2.6080   158.9950   156.3890 
 2485.6550    71.5370    72.2030    22.0860   193.4160     8.5970     2.6020   142.2280   140.1200 
 2485.7800    74.0260    71.5850    22.1240   194.4150     8.8670     2.5930   128.7040   126.8420 
 2485.9050    72.3150    71.0930    22.1660   193.3830     9.2070     2.5810   118.8560   117.1700 
 2486.0300    67.9340    70.7620    22.1900   192.4520     9.3440     2.5740   112.8680   111.4270 
 2486.1550    64.8340    70.6030    22.1670   191.5510     9.3180     2.5740   110.4240   109.3210 
 2486.2800    64.4550    70.6040    22.1490   190.7210     9.3170     2.5810   111.5390   110.7600 
 2486.4050    65.7700    70.6700    22.1320   191.1920     9.4350     2.5840   115.5830   115.0310 
 2486.5300    69.4340    70.7170    22.1210   192.0640     9.5570     2.5820   120.9580   120.6680 
 2486.6550    79.0210    70.6950    22.1290   192.4330     9.6710     2.5810   125.8540   125.8700 
 2486.7800    94.3530    70.5430    22.1510   192.9190     9.9580     2.5840   128.3930   128.5860 
 2486.9050   108.2630    70.2640    22.1590   193.6070    10.5520     2.5890   127.8970   128.0150 
 2487.0300   112.6970    69.9760    22.1710   194.6060    11.4340     2.5910   122.8820   122.7470 
 2487.1550   110.7150    69.8150    22.1780   196.2330    12.4200     2.5910   112.1840   111.8400 
 2487.2800   109.9160    69.7290    22.1960   199.5450    13.4300     2.5930    96.5100    96.0630 
 2487.4050   116.3980    69.5840    22.2190   204.4010    14.4810     2.5970    79.0460    78.7130 
 2487.5300   127.7440    69.3500    22.2870   209.8440    15.7530     2.6020    63.9170    63.9110 
 2487.6550   139.6460    69.2620    22.3920   218.3990    17.5210     2.6070    52.8690    53.2720 
 2487.7800   147.1760    69.3380    22.4990   229.7860    19.9350     2.6130    46.3530    47.0780 
 2487.9050   148.6060    69.4270    22.6270   236.7760    22.3310     2.6230    43.3370    44.2960 
 2488.0300   145.5790    69.6380    22.7910   237.8110    23.5460     2.6340    43.1400    44.2940 
 2488.1550   143.6350    69.8500    22.9510   235.5900    23.4060     2.6390    44.7320    46.0690 
 2488.2800   144.3700    70.0610    22.9750   230.0320    22.8450     2.6360    47.3660    48.8830 
 2488.4050   146.7070    70.2720    22.9150   224.1660    22.3470     2.6240    50.7560    52.4680 
