~Version Information Section
VERS.       2.00        :Log ASCII Standard-VERSION 2.0
WRAP.       NO          :One line per depth step
VEND.       PRIZM       :GeoGraphix
~Well Information Section
#MNEM.UNIT               VALUE/NAME                 DESCRIPTION
#----.----     ----------------------------------   --------------------
 STRT.M        2458.5300                            :START DEPTH
 STOP.M        2613.6550                            :STOP DEPTH
 STEP.M        0.1250                               :STEP
 NULL.         -999.2500                            :NULL VALUE
 WELL.         T010                                 :WELL
 COMP.                                              :COMPANY
 UWI.          T010                                 :UNIQUE WELL ID
 FLD.                                               :FIELD
 CNTY.                                              :COUNTY
 STAT.                                              :STATE
 CTRY.                                              :COUNTRY
 PROV.                                              :PROVENCE
 SRVC.         GEOGRAPHIX                           :SERVICE
 PDAT.         GR                                   :PERMANENT DATUM
 LMF.          KB                                   :LOG MEASURED FROM
 DMF.          KB                                   :DRILLING MEASURED FROM
 LOC.          TWP        - Range       - Sec       :LOCATION DESCRIPTION
 FTG.                                               :LOCATION FOOTAGE DESCRIPTION
 LOC1.                                              :LOCATION LINE 1
 LOC2.                                              :LOCATION LINE 2
 DATE.                                              :LOG DATE
~Curve Information Section
#MNEM.UNIT              API CODE            CURVE DESCRIPTION
#----.----            LG--CV-CL--M          -------------------------
 DEPT.M                                     :DEPTH
 GR.API                                     :Gamma Ray
 SP.MV                                      :Spontaneous Potential
 CAL.CM                                     :Description
 AC.US/MT                                   :Description
 CNL.                                       :Description
 DEN.GM/CC                                  :Description
 LLD.OHMM                                   :Laterlog-Deep Resistivity
 LLS.OHMM                                   :Laterlog-Shallow Resistivity
~Parameter Information Section
#MNEM.UNIT                  VALUE                   DESCRIPTION
#----.----     ----------------------------------   --------------------
 EKB.          1099.3000                            :ELEVATION OF KELLY BUSHING
 EDF.          -999.2500                            :ELEVATION OF DRILLING FLOOR
 EGL.          -999.2500                            :ELEVATION OF GROUND LEVEL
~A
# ...
 2588.5300   159.3800    84.4920    25.8050   255.1280    24.2030     2.4190   145.2730   132.2190 
 2588.6550   167.0180    84.5750    26.8060   280.5740    26.9360     2.3160   162.1700   147.6460 
 2588.7800   167.6240    84.4830    28.5640   304.2070    29.9270     2.2200   188.0300   172.1910 
 2588.9050   161.0770    84.2050    28.1120   324.0840    32.2590     2.1630   217.6700   202.2960 
 2589.0300   152.6720    83.7490    26.9100   334.5000    34.3950     2.1520   239.0130   225.5450 
 2589.1550   146.4050    83.1610    24.8580   332.0290    36.5730     2.1860   243.2390   232.4370 
 2589.2800   143.3050    82.6190    24.2950   319.6170    36.7690     2.2530   229.7390   222.6860 
 2589.4050   140.9780    82.3180    23.8820   299.5870    32.8960     2.3340   211.8190   210.0610 
 2589.5300   137.9560    82.3240    23.6770   275.0570    27.2210     2.4190   199.2920   203.6450 
 2589.6550   134.8600    82.4600    23.4500   252.9150    23.2450     2.4950   194.2930   203.7390 
 2589.7800   132.9230    82.4790    23.2220   231.5920    21.0050     2.5550   192.4010   205.3560 
 2589.9050   133.3670    82.2600    23.0140   215.0530    19.7000     2.5910   190.8530   206.1650 
 2590.0300   135.6460    81.9260    22.9250   213.3810    18.8190     2.5980   188.0530   205.2130 
 2590.1550   137.5080    81.6590    22.8500   220.2870    18.5330     2.5720   180.8920   199.2790 
 2590.2800   136.4750    81.5200    22.7740   227.3790    19.2450     2.5210   165.5280   183.8690 
 2590.4050   133.8460    81.3390    22.7040   240.0370    20.5190     2.4870   145.4170   162.4980 
 2590.5300   131.9480    80.9730    22.8130   255.0050    21.5750     2.4870   127.2560   142.4600 
 2590.6550   131.8850    80.4300    22.9930   256.6470    21.9800     2.5050   117.8080   131.1940 
 2590.7800   131.0830    79.9030    23.3360   248.2940    22.3310     2.5160   118.1270   129.9560 
 2590.9050   126.5030    79.4570    23.3410   240.7100    23.0670     2.5230   131.6850   141.8190 
 2591.0300   115.3510    78.9690    23.2280   243.6620    24.4200     2.4910   160.4180   193.2620 
 2591.1550    98.3890    78.3360    23.3470   255.8410    26.6680     2.3770   193.0060   244.6980 
 2591.2800    78.4570    77.6360    27.5260   269.3470    30.9240     2.2300   217.3290   263.9550 
 2591.4050    61.9360    77.0820    29.4150   280.0980    38.6070     2.1230   229.5650   267.6490 
 2591.5300    53.6990    76.7570    30.8300   286.0710    46.5500     2.0610   232.9860   263.2450 
 2591.6550    57.7790    76.7020    29.7220   276.7180    47.5950     2.0720   225.8260   250.1540 
 2591.7800    73.6120    76.9700    29.1510   256.9790    41.5670     2.1560   206.9330   225.4760 
 2591.9050    97.4370    77.5590    27.3810   241.5760    33.6590     2.2590   180.9430   193.8310 
 2592.0300   123.0660    78.2760    25.3500   234.7720    28.3670     2.3180   153.7270   162.7110 
 2592.1550   142.5820    78.7400    23.8300   231.0110    25.7450     2.3340   128.4690   135.7630 
 2592.2800   152.5080    78.7460    23.3370   229.2140    25.1370     2.3360   107.6720   114.7480 
 2592.4050   154.3430    79.1780    22.7990   228.5000    25.2040     2.3630    95.7510   103.1340 
 2592.5300   155.0880    79.8460    22.2630   226.3430    24.2990     2.4020    91.2360    98.8310 
 2592.6550   157.8180    79.9640    22.1590   222.7880    22.2400     2.4300    91.0360    98.7420 
 2592.7800   160.2310    80.1570    22.3000   219.0400    20.3680     2.4510    92.7450   100.5400 
 2592.9050   159.0270    80.4210    22.4410   212.8500    19.1570     2.4710    95.4110   103.1890 
 2593.0300   154.8690    80.5970    22.5820   208.6520    18.4460     2.4850    98.2930   105.7110 
 2593.1550   151.7420    80.8230    22.6490   215.5350    17.9450     2.4880   100.5190   107.1570 
 2593.2800   150.9720    81.0570    22.4900   224.6120    17.5600     2.4810   101.8620   107.4930 
 2593.4050   151.7820    81.2920    22.5600   226.4390    17.1490     2.4690   102.2970   106.8310 
 2593.5300   152.8640    81.5270    22.7930   228.7750    16.6230     2.4600   101.8490   105.1710 
 2593.6550   153.3880    81.7100    22.8240   231.3770    16.1410     2.4580   100.3100   102.3610 
 2593.7800   151.6580    81.3880    22.8490   228.1870    15.9250     2.4610    97.3200    98.2290 
 2593.9050   147.0900    80.6520    22.9120   226.8250    15.8000     2.4680    93.1820    93.2160 
 2594.0300   140.5320    80.0100    22.8650   229.0820    15.5220     2.4750    88.3020    87.7180 
 2594.1550   134.2200    79.8280    22.8400   228.7160    14.9060     2.4820    83.5760    82.4220 
 2594.2800   129.8630    79.8280    22.8740   226.8140    14.1160     2.4890    79.9980    78.1370 
 2594.4050   127.5030    79.8280    22.8730   224.4170    13.3630     2.4940    78.4020    75.6660 
 2594.5300   124.8120    79.7930    22.8360   220.0520    12.9630     2.5000    79.1510    75.4080 
 2594.6550   120.0690    79.5840    22.7900   216.4850    12.9930     2.5110    81.7740    76.9640 
 2594.7800   113.7400    79.0880    22.6810   215.0560    13.2940     2.5270    85.7980    79.8630 
 2594.9050   108.4470    78.0900    22.6370   213.1500    13.5050     2.5430    90.4100    83.2280 
 2595.0300   105.2890    76.8220    22.6170   210.7220    13.5400     2.5590    95.1240    86.5070 
 2595.1550   103.1030    75.7350    22.5930   208.4870    13.4180     2.5720   100.2920    89.8860 
 2595.2800    99.8690    75.3220    22.5380   205.6260    13.1600     2.5840   106.7610    94.1460 
 2595.4050    95.8360    75.3220    22.5000   202.2150    12.7330     2.5950   114.6770    99.4770 
 2595.5300    93.1460    75.3220    22.4270   199.9310    12.2380     2.6010   123.0880   105.0610 
 2595.6550    93.2080    75.3220    22.3810   198.8390    11.8780     2.6010   130.3350   109.5560 
 2595.7800    95.9830    75.3220    22.3450   198.2470    11.7510     2.5990   135.2450   111.9950 
 2595.9050    99.1950    75.3220    22.3190   198.6310    11.7970     2.5990   137.8900   112.4720 
 2596.0300   100.4350    75.3220    22.3040   201.0170    11.9330     2.6050   140.6890   113.1360 
 2596.1550    98.1340    75.3220    22.3220   203.8930    12.1560     2.6160   147.0290   116.9130 
 2596.2800    93.0830    75.3220    22.3730   204.0900    12.5740     2.6290   158.0610   124.8990 
 2596.4050    87.9870    75.3220    22.4150   202.1120    13.1410     2.6380   170.6320   134.6120 
 2596.5300    85.7930    75.3220    22.4280   199.7000    13.5940     2.6420   180.2930   142.5940 
 2596.6550    87.2060    75.3220    22.3910   197.2390    13.7850     2.6380   184.8820   147.1210 
 2596.7800    91.1000    75.3220    22.3390   195.0310    13.8790     2.6300   184.3890   148.0270 
 2596.9050    96.8130    75.3220    22.2880   194.5900    14.2520     2.6180   177.2970   143.6590 
 2597.0300   105.6700    74.2900    22.2600   196.4470    15.2990     2.6060   163.1710   133.2450 
 2597.1550   119.9280    74.0200    22.2500   200.2540    17.3430     2.5930   142.9130   117.5780 
 2597.2800   139.0110    74.2840    22.2730   204.8650    20.5740     2.5770   120.1420    99.9070 
 2597.4050   157.5600    75.0320    22.3550   209.6550    24.1180     2.5580    99.0240    83.6550 
 2597.5300   170.6420    75.9990    22.4600   215.8590    26.2550     2.5380    81.8720    70.5260 
 2597.6550   176.0640    76.7280    22.5140   223.3010    25.5290     2.5200    69.7690    61.3370 
 2597.7800   175.6990    76.9810    22.6390   229.3750    23.4080     2.5060    62.2760    55.9090 
 2597.9050   170.9680    76.6930    22.7450   232.5300    21.6640     2.4950    58.8890    53.8440 
 2598.0300   164.1050    76.0790    22.8980   233.6780    20.6950     2.4900    58.0180    53.7590 
 2598.1550   156.8800    75.4270    22.9490   233.2560    20.0100     2.4900    58.5420    54.8020 
 2598.2800   150.9030    74.9920    22.9660   230.8880    19.3880     2.4970    59.8280    56.4600 
 2598.4050   147.3150    74.7570    22.9580   227.7950    19.1000     2.5110    60.9970    57.9020 
