~Version Information Section
VERS.       2.00        :Log ASCII Standard-VERSION 2.0
WRAP.       NO          :One line per depth step
VEND.       PRIZM       :GeoGraphix
~Well Information Section
#MNEM.UNIT               VALUE/NAME                 DESCRIPTION
#----.----     ----------------------------------   --------------------
 STRT.M        2458.5300                            :START DEPTH
 STOP.M        2613.6550                            :STOP DEPTH
 STEP.M        0.1250                               :STEP
 NULL.         -999.2500                            :NULL VALUE
 WELL.         T010                                 :WELL
 COMP.                                              :COMPANY
 UWI.          T010                                 :UNIQUE WELL ID
 FLD.                                               :FIELD
 CNTY.                                              :COUNTY
 STAT.                                              :STATE
 CTRY.                                              :COUNTRY
 PROV.                                              :PROVENCE
 SRVC.         GEOGRAPHIX                           :SERVICE
 PDAT.         GR                                   :PERMANENT DATUM
 LMF.          KB                                   :LOG MEASURED FROM
 DMF.          KB                                   :DRILLING MEASURED FROM
 LOC.          TWP        - Range       - Sec       :LOCATION DESCRIPTION
 FTG.                                               :LOCATION FOOTAGE DESCRIPTION
 LOC1.                                              :LOCATION LINE 1
 LOC2.                                              :LOCATION LINE 2
 DATE.                                              :LOG DATE
~Curve Information Section
#MNEM.UNIT              API CODE            CURVE DESCRIPTION
#----.----            LG--CV-CL--M          -------------------------
 DEPT.M                                     :DEPTH
 GR.API                                     :Gamma Ray
 SP.MV                                      :Spontaneous Potential
 CAL.CM                                     :Description
 AC.US/MT                                   :Description
 CNL.                                       :Description
 DEN.GM/CC                                  :Description
 LLD.OHMM                                   :Laterlog-Deep Resistivity
 LLS.OHMM                                   :Laterlog-Shallow Resistivity
~Parameter Information Section
#MNEM.UNIT                  VALUE                   DESCRIPTION
#----.----     ----------------------------------   --------------------
 EKB.          1099.3000                            :ELEVATION OF KELLY BUSHING
 EDF.          -999.2500                            :ELEVATION OF DRILLING FLOOR
 EGL.          -999.2500                            :ELEVATION OF GROUND LEVEL
~A
# ...
 2558.5300   164.6910    79.4520    27.5250   253.3050    29.0400     2.2000    49.8670    45.8940 
 2558.6550   161.5190    79.7320    28.1520   258.1710    28.3090     2.1280    48.3450    44.8080 
 2558.7800   159.5770    80.0020    28.7790   253.8570    27.3310     2.1220    50.8990    47.3350 
 2558.9050   157.5220    80.2430    29.1830   242.8250    25.5980     2.2040    57.5830    53.5970 
 2559.0300   151.7470    80.4300    27.9140   228.1590    23.8570     2.3640    68.2080    63.6190 
 2559.1550   142.6030    80.5780    24.8890   215.1610    22.8790     2.5070    79.1340    74.0530 
 2559.2800   133.9610    80.7070    22.3440   209.6620    22.6720     2.5770    85.9500    80.5930 
 2559.4050   130.3960    80.8350    22.3000   212.7870    22.8560     2.5960    86.9370    81.3320 
 2559.5300   130.3180    80.9530    22.4790   218.3360    23.1740     2.6050    87.1840    81.0110 
 2559.6550   128.0820    81.0440    22.5970   219.8110    23.5890     2.6130    93.0670    85.5680 
 2559.7800   119.4100    81.0930    22.2670   215.1820    23.7230     2.6170   107.1390    97.2340 
 2559.9050   108.9440    81.1120    22.6800   211.2280    23.3230     2.6160   125.5320   112.8040 
 2560.0300   106.4370    81.1160    22.6270   214.8740    22.8270     2.6080   140.5650   126.3550 
 2560.1550   116.0430    81.1160    22.5240   224.0560    23.0200     2.5950   144.1890   131.1030 
 2560.2800   133.6530    81.1160    22.5810   233.7230    24.0780     2.5780   134.3270   124.4740 
 2560.4050   149.8610    81.1160    22.8140   240.6970    25.7530     2.5590   114.0540   107.9610 
 2560.5300   158.4580    81.1130    22.9450   244.9700    27.4420     2.5350    92.5120    89.4230 
 2560.6550   159.1590    81.1010    23.0460   244.5990    28.7320     2.4990    74.8440    73.8270 
 2560.7800   154.8780    81.0700    23.1350   240.3180    29.1400     2.4550    63.6500    63.8600 
 2560.9050   149.6990    81.0210    23.1330   238.0200    28.5630     2.4260    57.8630    58.7370 
 2561.0300   145.6350    80.9600    23.0350   238.4100    27.0380     2.4290    57.0280    58.2100 
 2561.1550   142.5470    80.8940    23.0140   235.9170    24.5910     2.4670    61.2340    62.6620 
 2561.2800   138.6980    80.8280    23.0210   228.6480    21.8370     2.5220    70.6950    72.4530 
 2561.4050   131.4930    80.7620    22.9960   218.3640    19.8620     2.5690    86.5180    88.5810 
 2561.5300   121.4810    80.6960    22.8590   208.5750    19.1820     2.5930   107.6830   109.5010 
 2561.6550   111.6950    80.6310    22.6720   200.4630    19.5810     2.6060   129.7410   130.1730 
 2561.7800   106.0060    80.5690    22.4300   197.2510    20.7790     2.6140   143.5300   141.2210 
 2561.9050   107.9790    80.5200    22.3390   200.9360    22.5080     2.6120   142.3940   137.2040 
 2562.0300   118.3560    80.4880    22.2780   209.0320    24.3820     2.5970   127.5250   120.5340 
 2562.1550   132.9920    80.4760    22.3180   222.1950    25.0860     2.5650   106.8170    99.7790 
 2562.2800   143.9930    80.4800    22.4930   236.0980    24.4070     2.5210    89.3480    83.2040 
 2562.4050   148.0240    80.5060    22.7930   241.2150    23.5490     2.4920    78.1710    73.1750 
 2562.5300   147.2770    80.5750    23.0210   237.7450    23.3560     2.5040    73.4000    69.3180 
 2562.6550   144.4160    80.6860    23.0760   233.1730    23.1290     2.5420    73.2220    69.6720 
 2562.7800   139.2320    80.8180    23.0300   226.3220    22.0900     2.5840    76.0930    72.7510 
 2562.9050   132.4230    80.9080    22.9410   218.8170    20.8140     2.6200    79.6060    76.4220 
 2563.0300   127.0780    80.8900    22.7900   216.0510    20.1810     2.6430    82.6140    79.5680 
 2563.1550   126.4190    80.7930    22.6380   216.4510    20.5240     2.6510    84.8960    81.7800 
 2563.2800   129.2610    80.8290    22.6200   215.5430    21.3620     2.6480    86.3800    82.9100 
 2563.4050   132.7460    81.0670    22.6270   215.4340    22.2130     2.6410    86.9270    82.9120 
 2563.5300   135.7830    81.2860    22.6150   219.2190    22.8740     2.6350    87.1850    82.4600 
 2563.6550   138.5840    81.2900    22.6100   223.2820    23.3670     2.6320    88.8590    83.1980 
 2563.7800   140.2400    81.1810    22.6900   225.8910    23.5030     2.6300    93.0600    86.1950 
 2563.9050   138.2380    81.1260    22.7370   228.7860    23.1110     2.6260    99.4690    91.2060 
 2564.0300   133.6880    81.1160    22.7970   230.4210    22.5440     2.6180   105.5860    96.0400 
 2564.1550   130.5740    81.1160    22.8390   229.3100    22.0400     2.6070   108.7570    98.4810 
 2564.2800   134.0330    81.1160    22.8810   229.0340    21.7190     2.6000   106.7760    96.7830 
 2564.4050   142.9980    81.1160    22.8590   231.0710    21.6040     2.5990   100.2370    91.4080 
 2564.5300   152.5260    81.1170    22.8630   233.0050    21.8240     2.6030    91.1310    83.8460 
 2564.6550   156.6800    81.1280    22.8900   234.3690    22.3920     2.6100    83.1400    77.0100 
 2564.7800   155.7510    81.1700    22.9280   235.7120    22.9560     2.6190    78.3420    72.6900 
 2564.9050   153.7270    81.2730    22.9490   235.7550    23.1270     2.6270    77.4740    71.6470 
 2565.0300   152.3160    81.4350    22.9830   234.6880    23.0620     2.6300    79.3010    72.9540 
 2565.1550   149.9250    81.6320    22.9810   233.9700    22.9860     2.6260    82.8280    75.7760 
 2565.2800   147.2410    81.8420    22.9670   234.1950    23.1550     2.6070    87.3380    79.4150 
 2565.4050   147.2230    82.0530    22.9490   235.9130    23.5930     2.5740    91.8150    82.8780 
 2565.5300   148.9180    82.2640    22.9510   240.7240    24.3330     2.5330    95.3340    85.3750 
 2565.6550   146.5990    82.4750    22.9970   247.0320    25.0710     2.4960    97.2110    86.5410 
 2565.7800   139.9670    82.6790    23.0740   249.8500    24.8310     2.4720    98.1840    87.3180 
 2565.9050   134.4660    82.8640    24.2750   247.6330    23.2260     2.4650    99.6140    89.1630 
 2566.0300   134.2070    83.0170    24.4460   242.0070    21.5450     2.4770   103.0000    93.3540 
 2566.1550   135.3390    83.1480    24.8400   232.3030    20.7900     2.4930   107.5290    98.7670 
 2566.2800   133.3230    83.2730    25.0500   223.0490    21.5030     2.4770   109.2520   101.3070 
 2566.4050   130.8060    83.4020    25.9490   226.6230    23.3830     2.4120   103.9050    96.8090 
 2566.5300   132.8050    83.5330    26.6830   241.2170    25.5780     2.3270    92.0480    85.9580 
 2566.6550   140.3510    83.6650    27.5280   253.9560    26.8600     2.2750    78.1990    73.1980 
 2566.7800   147.7060    83.7970    27.7660   259.6940    26.3850     2.2740    67.2740    63.1810 
 2566.9050   151.4740    83.9290    27.4650   258.6250    24.9470     2.3100    60.0170    56.5440 
 2567.0300   151.5040    84.0510    27.1450   249.8060    24.3230     2.3620    55.6150    52.4890 
 2567.1550   150.5570    84.1270    26.3020   242.6770    24.6270     2.4190    53.1940    50.2700 
 2567.2800   151.1010    84.0950    25.3160   242.8110    25.2360     2.4600    52.6060    49.7960 
 2567.4050   153.9570    83.9020    24.3310   244.8830    25.6440     2.4800    53.6510    50.8700 
 2567.5300   156.3300    83.5940    23.3450   245.4530    25.9840     2.4990    56.7790    53.9120 
 2567.6550   152.9230    83.2290    22.7040   241.4840    26.2260     2.5290    63.8370    60.6940 
 2567.7800   141.8160    82.8530    22.7040   228.5770    25.5480     2.5530    75.6910    72.0340 
 2567.9050   126.7280    82.4760    22.7040   213.6770    24.0590     2.5690    90.4350    86.0260 
 2568.0300   112.1890    82.1000    22.9330   205.8010    22.3350     2.5840   104.4290    99.0500 
 2568.1550   101.7140    81.7440    22.5920   202.6260    20.7860     2.6020   114.1380   107.7120 
 2568.2800    96.2080    81.4590    22.4490   200.8340    19.5700     2.6200   118.4820   110.9850 
 2568.4050    95.6450    81.3610    22.3670   200.8920    18.9520     2.6280   117.3890   108.7170 
