~Version Information Section
VERS.       2.00        :Log ASCII Standard-VERSION 2.0
WRAP.       NO          :One line per depth step
VEND.       PRIZM       :GeoGraphix
~Well Information Section
#MNEM.UNIT               VALUE/NAME                 DESCRIPTION
#----.----     ----------------------------------   --------------------
 STRT.M        2458.5300                            :START DEPTH
 STOP.M        2613.6550                            :STOP DEPTH
 STEP.M        0.1250                               :STEP
 NULL.         -999.2500                            :NULL VALUE
 WELL.         T010                                 :WELL
 COMP.                                              :COMPANY
 UWI.          T010                                 :UNIQUE WELL ID
 FLD.                                               :FIELD
 CNTY.                                              :COUNTY
 STAT.                                              :STATE
 CTRY.                                              :COUNTRY
 PROV.                                              :PROVENCE
 SRVC.         GEOGRAPHIX                           :SERVICE
 PDAT.         GR                                   :PERMANENT DATUM
 LMF.          KB                                   :LOG MEASURED FROM
 DMF.          KB                                   :DRILLING MEASURED FROM
 LOC.          TWP        - Range       - Sec       :LOCATION DESCRIPTION
 FTG.                                               :LOCATION FOOTAGE DESCRIPTION
 LOC1.                                              :LOCATION LINE 1
 LOC2.                                              :LOCATION LINE 2
 DATE.                                              :LOG DATE
~Curve Information Section
#MNEM.UNIT              API CODE            CURVE DESCRIPTION
#----.----            LG--CV-CL--M          -------------------------
 DEPT.M                                     :DEPTH
 GR.API                                     :Gamma Ray
 SP.MV                                      :Spontaneous Potential
 CAL.CM                                     :Description
 AC.US/MT                                   :Description
 CNL.                                       :Description
 DEN.GM/CC                                  :Description
 LLD.OHMM                                   :Laterlog-Deep Resistivity
 LLS.OHMM                                   :Laterlog-Shallow Resistivity
~Parameter Information Section
#MNEM.UNIT                  VALUE                   DESCRIPTION
#----.----     ----------------------------------   --------------------
 EKB.          1099.3000                            :ELEVATION OF KELLY BUSHING
 EDF.          -999.2500                            :ELEVATION OF DRILLING FLOOR
 EGL.          -999.2500                            :ELEVATION OF GROUND LEVEL
~A
# ...
 2608.5300   158.0160    80.9480    22.7510   226.7350    21.7780     2.5470   123.3090    98.9740 
 2608.6550   154.7100    80.5910    22.8200   226.5420    20.8720     2.5460   118.9780    94.9640 
 2608.7800   147.5840    80.1160    22.8330   226.2390    19.7020     2.5480   119.7520    94.6370 
 2608.9050   141.4710    79.5620    22.8310   227.6780    18.9110     2.5520   124.5670    96.8730 
 2609.0300   140.5210    78.8540    22.8270   229.7680    18.4920     2.5510   131.7390   100.6160 
 2609.1550   145.0780    77.9410    22.8520   229.9200    18.1490     2.5450   137.9800   104.1250 
 2609.2800   151.5940    76.9510    22.8900   229.1440    18.0620     2.5340   141.5890   106.2720 
 2609.4050   154.7600    76.0430    22.8850   227.2670    18.8240     2.5250   142.8630   106.7880 
 2609.5300   150.2820    75.1250    22.8730   223.8130    20.3670     2.5230   143.8260   106.7550 
 2609.6550   136.5880    74.0520    22.8420   220.2690    21.7920     2.5280   145.0310   106.8140 
 2609.7800   115.9860    72.9400    22.7880   216.6210    21.4710     2.5400   145.5040   106.6600 
 2609.9050    95.1670    72.0720    22.7100   212.5860    19.4000     2.5510   144.1980   105.5100 
 2610.0300    78.0180    71.4540    22.6270   209.3180    16.5980     2.5600   140.4290   102.7610 
 2610.1550    65.5720    70.7720    22.5540   207.8940    14.2350     2.5650   134.3320    98.4330 
 2610.2800    56.9210    69.8530    22.5090   208.9920    12.6150     2.5660   128.2880    94.1140 
 2610.4050    52.1030    68.7410    22.4840   211.8700    11.6030     2.5690   125.4420    91.9590 
 2610.5300    49.6600    67.5890    22.4990   214.2560    10.8520     2.5760   127.7100    93.4570 
 2610.6550    47.7140    66.5030    22.5660   215.0090    10.2390     2.5900   134.2360    98.1650 
 2610.7800    46.4210    65.5700    22.6160   212.7200     9.9470     2.6080   143.3920   104.9270 
 2610.9050    46.9160    64.7650    22.6220   208.3080    10.0590     2.6210   151.8850   111.1430 
 2611.0300    48.7950    64.0010    22.5850   204.6140    10.3740     2.6200   156.7070   114.4940 
 2611.1550    50.4940    63.2540    22.5190   203.8430    10.5730     2.6000   154.8280   112.9890 
 2611.2800    51.0650    62.5790    22.4300   206.2460    10.6150     2.5740   147.4650   107.7980 
 2611.4050    51.2110    61.9940    22.4190   211.5220    10.5940     2.5560   137.1120   100.7270 
 2611.5300    52.2480    61.5140    22.4450   217.0950    10.5320     2.5580   126.6980    93.6690 
 2611.6550    53.8320    61.1980    22.5590   220.8830    10.5000     2.5620   117.4490    87.3360 
 2611.7800    55.0090    61.0670    22.6390   223.5300    10.6740     2.5560   109.4820    81.8120 
 2611.9050    54.1410    60.9240    22.7180   226.3470    11.2100     2.5400   102.8610    77.2690 
 2612.0300    51.7460    60.5970    22.7760   229.3920    11.8890     2.5230    97.8130    73.9630 
 2612.1550    49.9260    60.2110    22.8400   232.5640    12.2580     2.5090    94.8020    72.2260 
 2612.2800    50.2670    60.1530    22.8740   235.7270    12.1390     2.5020    93.8760    71.9350 
 2612.4050    51.7730    60.5440    22.9330   237.8050    11.8120     2.5010    94.6130    72.7380 
 2612.5300    51.8040    61.2270    22.9800   237.5880    11.5070     2.5050    96.4380    74.3410 
 2612.6550    49.6490    61.8940    23.0340   236.3580    11.2650     2.5100    98.6550    76.3090 
 2612.7800    47.0380    62.4500    23.0300   235.3340    11.1270     2.5160   101.2280    78.4850 
 2612.9050    45.8490    62.8860    23.0170   234.5320    11.2020     2.5220   104.8260    81.1060 
 2613.0300    46.3520    62.9800    22.9960   233.4900    11.4420     2.5300   109.7780    84.3650 
 2613.1550    49.6740    63.2200    22.9850   231.6650    11.8570     2.5410   116.0080    88.2900 
 2613.2800    59.1100    63.3480    22.9590   229.1420    12.7300     2.5550   123.7250    93.1480 
 2613.4050    75.1850    63.6640    22.9280   227.3430    14.2750     2.5700   133.8430    99.5590 
 2613.5300    95.7650    64.0480    22.8910   226.8160    16.4610     2.5870   147.6760   108.3430 
 2613.6550   114.2680    64.4320    22.8460   226.6530    18.9260     2.6030   165.7560   119.8580 
