~Version Information Section
VERS.       2.00        :Log ASCII Standard-VERSION 2.0
WRAP.       NO          :One line per depth step
VEND.       PRIZM       :GeoGraphix
~Well Information Section
#MNEM.UNIT               VALUE/NAME                 DESCRIPTION
#----.----     ----------------------------------   --------------------
 STRT.M        2458.5300                            :START DEPTH
 STOP.M        2613.6550                            :STOP DEPTH
 STEP.M        0.1250                               :STEP
 NULL.         -999.2500                            :NULL VALUE
 WELL.         T010                                 :WELL
 COMP.                                              :COMPANY
 UWI.          T010                                 :UNIQUE WELL ID
 FLD.                                               :FIELD
 CNTY.                                              :COUNTY
 STAT.                                              :STATE
 CTRY.                                              :COUNTRY
 PROV.                                              :PROVENCE
 SRVC.         GEOGRAPHIX                           :SERVICE
 PDAT.         GR                                   :PERMANENT DATUM
 LMF.          KB                                   :LOG MEASURED FROM
 DMF.          KB                                   :DRILLING MEASURED FROM
 LOC.          TWP        - Range       - Sec       :LOCATION DESCRIPTION
 FTG.                                               :LOCATION FOOTAGE DESCRIPTION
 LOC1.                                              :LOCATION LINE 1
 LOC2.                                              :LOCATION LINE 2
 DATE.                                              :LOG DATE
~Curve Information Section
#MNEM.UNIT              API CODE            CURVE DESCRIPTION
#----.----            LG--CV-CL--M          -------------------------
 DEPT.M                                     :DEPTH
 GR.API                                     :Gamma Ray
 SP.MV                                      :Spontaneous Potential
 CAL.CM                                     :Description
 AC.US/MT                                   :Description
 CNL.                                       :Description
 DEN.GM/CC                                  :Description
 LLD.OHMM                                   :Laterlog-Deep Resistivity
 LLS.OHMM                                   :Laterlog-Shallow Resistivity
~Parameter Information Section
#MNEM.UNIT                  VALUE                   DESCRIPTION
#----.----     ----------------------------------   --------------------
 EKB.          1099.3000                            :ELEVATION OF KELLY BUSHING
 EDF.          -999.2500                            :ELEVATION OF DRILLING FLOOR
 EGL.          -999.2500                            :ELEVATION OF GROUND LEVEL
~A
# ...
 2548.5300   164.2640    76.2120    22.6600   213.7770    10.8780     2.5810   127.4650   112.7630 
 2548.6550   154.5130    76.4710    22.5970   210.6990    11.1390     2.5780   144.6020   127.2430 
 2548.7800   141.8570    76.7280    22.5600   206.8950    11.3630     2.5760   157.4720   138.0330 
 2548.9050   123.0060    77.0160    22.5180   202.8480    11.2290     2.5750   163.9950   143.5490 
 2549.0300   101.7460    77.3420    22.4330   197.7980    10.9820     2.5670   162.6620   142.4550 
 2549.1550    86.5300    77.6880    22.3440   193.4410    10.9310     2.5470   152.3340   133.5780 
 2549.2800    86.9390    78.0390    22.2350   197.3960    11.2590     2.5130   132.8560   116.7490 
 2549.4050   100.0960    78.3920    22.1840   209.6590    11.9180     2.4690   109.6160    96.7920 
 2549.5300   118.6270    78.7430    22.2330   223.5480    12.9040     2.4240    87.3690    77.8960 
 2549.6550   134.1370    79.0880    22.4260   233.4730    14.3820     2.3890    70.4170    63.6280 
 2549.7800   144.1620    79.4030    22.7370   242.8190    16.4260     2.3660    59.3370    54.3920 
 2549.9050   148.1830    79.6420    22.9580   249.2020    18.9440     2.3550    54.1030    50.2610 
 2550.0300   144.7480    79.7700    23.0670   245.7600    21.0930     2.3690    53.6380    50.4890 
 2550.1550   135.9020    79.8190    23.2050   237.3710    21.9800     2.4120    56.1610    53.5000 
 2550.2800   127.1980    79.8280    23.1770   231.3090    21.8960     2.4800    60.0560    57.7470 
 2550.4050   125.2170    79.8280    22.9690   225.2700    21.9290     2.5470    62.8280    60.7970 
 2550.5300   130.5960    79.8280    22.8620   220.4260    22.4840     2.5870    62.6320    60.8660 
 2550.6550   139.7330    79.8280    22.7250   223.1960    23.6370     2.5860    58.6670    57.1880 
 2550.7800   147.2410    79.8280    22.6720   233.2930    24.9000     2.5620    53.2800    52.0400 
 2550.9050   151.2120    79.8280    22.7100   244.6820    25.7890     2.5390    49.0280    47.8520 
 2551.0300   150.7790    79.8280    22.8630   247.1200    25.7800     2.5380    48.0640    46.6680 
 2551.1550   148.2520    79.8280    23.1280   240.8710    24.8310     2.5590    50.2720    48.4020 
 2551.2800   145.8730    79.8280    23.1590   232.7580    23.5060     2.5870    55.3980    52.8150 
 2551.4050   145.9570    79.8280    23.0780   223.9550    22.2950     2.6060    62.4590    58.9410 
 2551.5300   147.6870    79.8280    22.9030   215.8340    21.3000     2.6130    69.6180    65.0170 
 2551.6550   148.2750    79.8280    22.7810   214.0780    20.5510     2.6080    75.6480    69.9010 
 2551.7800   145.6500    79.8280    22.5860   218.2450    20.2840     2.6010    81.1930    74.2160 
 2551.9050   140.5830    79.8280    22.5730   223.2160    20.5730     2.5980    88.3580    79.8590 
 2552.0300   133.1660    79.8280    22.6220   227.0160    21.0790     2.6080    99.1010    88.4610 
 2552.1550   123.5900    79.8280    22.7310   232.9840    21.1270     2.6270   112.3620    99.0610 
 2552.2800   113.9940    79.8280    22.7970   241.7780    20.6660     2.6430   125.2070   109.2610 
 2552.4050   109.9300    79.8160    22.9570   246.4030    20.4020     2.6420   133.7430   116.0710 
 2552.5300   113.7780    79.7550    23.0800   245.5540    20.7970     2.6260   137.2840   119.1270 
 2552.6550   122.5730    79.5800    23.1590   242.6390    21.6730     2.6050   137.4220   119.8470 
 2552.7800   129.5120    79.2350    23.1420   234.8790    22.5750     2.5850   136.4300   120.1770 
 2552.9050   131.5080    78.7970    23.0770   223.6120    23.1040     2.5500   133.7820   119.3110 
 2553.0300   130.5820    78.4220    24.1650   215.1240    23.3510     2.4720   125.3870   113.1950 
 2553.1550   131.5580    78.3200    24.8610   215.7910    24.0220     2.3450   107.8710    98.3710 
 2553.2800   134.6870    78.4240    26.4100   229.6220    25.7540     2.2040    85.3550    78.5320 
 2553.4050   138.0960    78.4420    27.9590   254.1920    28.3950     2.0900    64.9500    60.2970 
 2553.5300   140.1280    78.1970    29.1930   273.9370    29.3060     2.0230    51.9130    48.6490 
 2553.6550   141.0820    77.8530    28.7740   286.8380    27.1060     1.9990    45.7660    43.2180 
 2553.7800   141.6040    77.6420    28.1170   292.9600    24.2860     2.0260    45.4390    43.0960 
 2553.9050   141.3750    77.6030    27.4600   282.5180    23.1570     2.1050    49.1740    46.7250 
 2554.0300   140.5740    77.6180    26.8030   259.8520    23.3100     2.2290    55.2470    52.4920 
 2554.1550   140.1830    77.5620    24.4770   243.2400    23.4920     2.3730    61.8000    58.5950 
 2554.2800   140.7170    77.4800    23.0950   231.5840    23.3830     2.5000    68.0530    64.2660 
 2554.4050   142.1060    77.4920    23.1450   222.2350    23.6350     2.5800    73.8740    69.3100 
 2554.5300   143.7120    77.6390    22.8480   225.1760    24.7050     2.6040    77.9810    72.3500 
 2554.6550   145.4560    77.7590    22.7180   234.7760    25.7760     2.5860    79.0120    72.2140 
 2554.7800   146.4430    77.6890    22.7450   244.4700    25.7630     2.5400    77.1080    69.3920 
 2554.9050   144.3880    77.4980    22.9290   258.8600    24.9620     2.4960    74.8050    66.6830 
 2555.0300   138.3160    77.4320    23.1170   268.6130    24.3070     2.4800    73.8340    65.6860 
 2555.1550   130.1680    77.6240    23.4730   259.0950    23.7010     2.5050    74.3830    66.3680 
 2555.2800   125.6010    77.8710    23.5490   243.1280    23.1650     2.5300    75.4450    67.5510 
 2555.4050   127.9490    77.9240    23.4110   231.5000    23.6330     2.5090    75.7690    68.0260 
 2555.5300   137.5440    77.6700    23.1600   228.3910    26.0610     2.4220    73.5900    66.1270 
 2555.6550   149.5890    77.2770    22.8900   238.2980    29.8280     2.3120    68.6920    61.6980 
 2555.7800   159.8780    76.9050    24.8870   256.0820    33.2710     2.2180    62.3040    55.9160 
 2555.9050   164.3110    76.6850    25.2270   272.7120    34.5780     2.1570    56.4560    50.6610 
 2556.0300   162.8680    76.6370    26.0150   288.8190    34.1180     2.1210    52.1520    46.8270 
 2556.1550   158.1840    76.7130    26.8040   297.5270    32.2630     2.1040    49.6460    44.6240 
 2556.2800   154.6460    76.8030    27.1380   292.1050    30.1320     2.1090    48.8470    43.9280 
 2556.4050   153.5310    76.8770    26.8270   284.3290    28.8960     2.1430    49.4300    44.3940 
 2556.5300   153.2620    76.9550    26.0090   279.1700    28.5980     2.2220    51.8130    46.3530 
 2556.6550   151.5220    77.0460    23.5610   265.7360    28.1200     2.3340    56.0270    49.8710 
 2556.7800   149.6660    77.1410    23.7510   247.1340    27.4340     2.4470    60.9650    54.0260 
 2556.9050   150.3200    77.2370    23.5950   235.8610    27.0770     2.5190    65.2260    57.6440 
 2557.0300   152.6210    77.3330    23.1370   230.9680    26.6710     2.5520    68.5820    60.5500 
 2557.1550   153.8190    77.4290    22.9390   227.6250    25.8730     2.5680    71.5980    63.2560 
 2557.2800   151.8090    77.5250    22.8560   226.5250    24.7410     2.5860    74.5200    65.9670 
 2557.4050   148.9730    77.6210    22.8140   225.8320    24.0280     2.6040    77.0560    68.3670 
 2557.5300   148.6680    77.7160    22.7930   225.3160    24.1700     2.6120    78.8440    70.1120 
 2557.6550   152.4760    77.8160    22.7790   225.4030    24.8750     2.6050    79.3720    70.7780 
 2557.7800   157.8690    77.9370    22.7620   224.6660    25.4450     2.5880    78.5380    70.2580 
 2557.9050   162.1110    78.1090    23.2170   224.6390    25.5560     2.5650    76.2600    68.4200 
 2558.0300   164.0240    78.3410    23.5330   226.2680    25.8480     2.5360    72.5960    65.2820 
 2558.1550   165.3560    78.6080    24.0260   228.5510    26.9970     2.4990    67.6670    61.0150 
 2558.2800   167.1240    78.8880    24.7480   233.3640    28.6240     2.4280    61.4640    55.6830 
 2558.4050   167.2020    79.1700    26.3910   242.5600    29.4000     2.3160    54.9700    50.1580 
