~Version Information Section
VERS.       2.00        :Log ASCII Standard-VERSION 2.0
WRAP.       NO          :One line per depth step
VEND.       PRIZM       :GeoGraphix
~Well Information Section
#MNEM.UNIT               VALUE/NAME                 DESCRIPTION
#----.----     ----------------------------------   --------------------
 STRT.M        2458.5300                            :START DEPTH
 STOP.M        2613.6550                            :STOP DEPTH
 STEP.M        0.1250                               :STEP
 NULL.         -999.2500                            :NULL VALUE
 WELL.         T010                                 :WELL
 COMP.                                              :COMPANY
 UWI.          T010                                 :UNIQUE WELL ID
 FLD.                                               :FIELD
 CNTY.                                              :COUNTY
 STAT.                                              :STATE
 CTRY.                                              :COUNTRY
 PROV.                                              :PROVENCE
 SRVC.         GEOGRAPHIX                           :SERVICE
 PDAT.         GR                                   :PERMANENT DATUM
 LMF.          KB                                   :LOG MEASURED FROM
 DMF.          KB                                   :DRILLING MEASURED FROM
 LOC.          TWP        - Range       - Sec       :LOCATION DESCRIPTION
 FTG.                                               :LOCATION FOOTAGE DESCRIPTION
 LOC1.                                              :LOCATION LINE 1
 LOC2.                                              :LOCATION LINE 2
 DATE.                                              :LOG DATE
~Curve Information Section
#MNEM.UNIT              API CODE            CURVE DESCRIPTION
#----.----            LG--CV-CL--M          -------------------------
 DEPT.M                                     :DEPTH
 GR.API                                     :Gamma Ray
 SP.MV                                      :Spontaneous Potential
 CAL.CM                                     :Description
 AC.US/MT                                   :Description
 CNL.                                       :Description
 DEN.GM/CC                                  :Description
 LLD.OHMM                                   :Laterlog-Deep Resistivity
 LLS.OHMM                                   :Laterlog-Shallow Resistivity
~Parameter Information Section
#MNEM.UNIT                  VALUE                   DESCRIPTION
#----.----     ----------------------------------   --------------------
 EKB.          1099.3000                            :ELEVATION OF KELLY BUSHING
 EDF.          -999.2500                            :ELEVATION OF DRILLING FLOOR
 EGL.          -999.2500                            :ELEVATION OF GROUND LEVEL
~A
# ...
 2578.5300   140.9640    87.3300    22.9150   228.0670    24.4400     2.5890   112.1110   117.7390 
 2578.6550   142.9250    87.4930    22.8180   231.0850    24.5720     2.5770   112.7760   118.4750 
 2578.7800   145.3320    87.1810    22.8300   239.9040    25.2700     2.5420   109.9510   114.7950 
 2578.9050   148.3140    86.5220    22.9130   256.4710    26.7790     2.4710   109.6470   113.0010 
 2579.0300   153.3290    85.8460    23.4420   268.9780    29.2100     2.3590   116.3890   118.1770 
 2579.1550   161.3120    85.5310    23.6500   272.8390    33.3730     2.2210   134.6510   136.0500 
 2579.2800   169.9910    85.6870    24.1790   280.1180    40.1390     2.1050   159.8040   163.9400 
 2579.4050   175.2670    86.1560    24.7100   292.4640    48.1260     2.0400   180.3140   190.7270 
 2579.5300   173.4200    86.5830    26.7440   302.6700    52.8490     2.0200   183.6470   201.6860 
 2579.6550   168.7720    86.6690    28.3180   308.9780    52.8380     2.0240   174.0980   197.2650 
 2579.7800   166.4760    86.3610    28.9440   318.2780    49.9670     2.0410   159.3540   182.9990 
 2579.9050   165.5180    85.8930    28.8900   335.3330    46.6860     2.0480   144.4770   163.9140 
 2580.0300   160.9680    85.5920    28.7810   342.3720    42.9210     2.0420   130.0250   143.0680 
 2580.1550   151.8390    85.5910    27.9730   328.5650    37.0630     2.0500   117.7060   124.4430 
 2580.2800   143.1470    85.6420    26.0020   308.6230    30.0240     2.0970   108.9230   111.4340 
 2580.4050   137.4920    85.4280    25.4520   285.7540    24.7020     2.1870   102.6550   102.9450 
 2580.5300   134.8790    84.9630    26.1940   251.3040    21.8070     2.3210    99.4570    98.8760 
 2580.6550   134.6270    84.5820    24.5970   223.6630    20.5970     2.4510   100.5350    99.6950 
 2580.7800   136.7770    84.3550    21.9990   217.6150    20.4630     2.5330   104.9330   104.1190 
 2580.9050   140.8780    84.1650    22.3930   224.7010    21.0110     2.5630   110.3720   109.5750 
 2581.0300   145.7680    83.9510    22.7880   232.1700    21.6090     2.5690   114.8850   113.5640 
 2581.1550   150.1650    83.7230    22.9100   241.0890    21.6940     2.5650   117.3530   114.5890 
 2581.2800   151.6730    83.4930    22.8860   248.2280    21.0450     2.5570   116.9710   111.7730 
 2581.4050   148.3920    83.2640    23.0810   248.5100    20.4110     2.5490   115.4020   107.4990 
 2581.5300   140.1520    83.0340    23.2270   242.8240    20.0530     2.5470   114.5610   104.4230 
 2581.6550   128.4070    82.8050    23.1950   234.3650    19.1510     2.5540   114.7100   103.4700 
 2581.7800   116.1510    82.5750    23.1020   224.2260    17.3170     2.5700   113.8930   102.5790 
 2581.9050   106.0910    82.3470    22.9940   214.1050    15.2130     2.5840   110.5710    99.8320 
 2582.0300    99.5520    82.1260    22.7930   208.2660    13.8080     2.5910   105.0340    95.0520 
 2582.1550    96.7850    81.9260    22.6010   207.7100    13.3320     2.6000    98.3300    89.2160 
 2582.2800    99.0440    81.7510    22.4720   211.1750    13.6890     2.6170    91.5550    83.4110 
 2582.4050   105.6620    81.5860    22.4760   216.7510    14.3720     2.6330    86.5590    79.1590 
 2582.5300   114.6730    81.4130    22.5320   222.7600    15.0180     2.6430    85.1000    77.8090 
 2582.6550   123.8650    81.2300    22.6140   227.9620    15.6660     2.6410    88.7050    80.6960 
 2582.7800   130.8110    81.0440    22.7500   233.9990    16.6150     2.6320    95.8390    86.7470 
 2582.9050   133.9010    80.8580    22.8690   240.0260    17.7920     2.6210   104.3150    94.1460 
 2583.0300   132.6890    80.6720    22.9880   240.8500    18.6790     2.6160   110.8750    99.8840 
 2583.1550   129.7800    80.4850    23.0700   237.5250    19.2170     2.6180   114.1260   102.5160 
 2583.2800   127.4690    80.3000    23.0900   233.7020    19.7200     2.6260   114.3530   102.2170 
 2583.4050   127.4950    80.1200    23.0330   228.1580    20.3170     2.6310   112.2960    99.7720 
 2583.5300   130.4330    79.9570    22.9490   219.8530    20.8500     2.6260   107.7250    95.0840 
 2583.6550   136.6580    79.8290    22.8150   217.0180    21.5860     2.6040   100.5120    88.0770 
 2583.7800   144.0520    79.7320    22.7160   228.1260    23.0510     2.5600    92.6790    80.5740 
 2583.9050   150.5860    79.6550    22.6540   247.6530    25.6420     2.4930    85.6360    73.8730 
 2584.0300   154.5100    79.5840    22.7740   266.7120    29.5550     2.4220    79.2750    68.0210 
 2584.1550   156.4060    79.5130    23.2390   281.2980    33.3330     2.3710    73.3320    62.8520 
 2584.2800   158.1660    79.4430    23.6050   286.2790    34.4360     2.3580    68.7500    59.1920 
 2584.4050   161.4360    79.3730    23.7710   278.7030    31.6230     2.3930    66.6570    57.9270 
 2584.5300   164.6730    79.3050    23.8970   266.4600    28.0430     2.4450    66.5390    58.4010 
 2584.6550   166.5230    79.2470    23.7930   253.7250    25.3130     2.4840    68.3100    60.4250 
 2584.7800   167.0800    79.2090    23.5750   244.7820    23.6250     2.5070    72.3640    64.3110 
 2584.9050   166.7390    79.1900    23.2940   242.0200    22.6260     2.5230    78.3640    69.7970 
 2585.0300   164.3750    79.1850    23.1160   240.3950    22.1360     2.5300    85.6680    76.3170 
 2585.1550   159.4740    79.1830    23.0970   236.4930    21.9750     2.5310    93.4080    83.0460 
 2585.2800   154.1880    79.1740    23.0690   233.7740    21.8580     2.5320   101.2360    89.5980 
 2585.4050   150.5280    79.1560    23.0150   233.2470    21.4550     2.5390   109.4300    96.0380 
 2585.5300   147.2680    79.1580    22.9430   232.4850    21.0290     2.5500   118.3090   102.5310 
 2585.6550   143.3450    79.2160    22.9330   230.4660    20.7950     2.5640   127.2140   108.5970 
 2585.7800   138.9240    79.3540    22.9250   227.4710    20.6940     2.5780   134.0500   112.7530 
 2585.9050   135.2360    79.5050    22.8830   225.4720    20.6240     2.5930   137.0800   113.8530 
 2586.0300   133.7870    79.5610    22.8360   225.0440    20.6050     2.6070   135.8690   111.5980 
 2586.1550   135.6410    79.4430    22.7860   226.2130    20.5190     2.6120   132.2030   107.4020 
 2586.2800   138.9380    79.3080    22.7820   228.9640    20.1370     2.6080   129.4970   104.1170 
 2586.4050   140.8800    79.4120    22.7970   231.8870    19.5690     2.5960   129.9820   103.8220 
 2586.5300   138.2940    79.9040    22.8490   232.2170    19.2390     2.5870   135.1630   108.1140 
 2586.6550   131.0060    80.5740    22.9130   229.6140    19.0180     2.5840   146.6280   118.1930 
 2586.7800   120.4680    81.0620    22.9260   224.2210    18.3160     2.5910   166.9770   135.9490 
 2586.9050   109.8280    81.1080    22.8600   216.7180    16.7200     2.6020   194.3440   159.5890 
 2587.0300   100.5590    80.8060    22.7600   208.7310    14.7600     2.6160   222.6630   184.5090 
 2587.1550    92.6450    80.4450    22.2360   202.1590    13.3620     2.6280   243.7160   204.7280 
 2587.2800    86.4660    80.2830    22.3130   197.5370    12.9900     2.6360   252.6710   215.7520 
 2587.4050    84.4150    80.3050    22.4440   195.7520    13.5870     2.6410   248.4340   215.2580 
 2587.5300    89.8520    80.3570    22.5760   198.8410    14.9560     2.6360   231.8050   202.4230 
 2587.6550   100.6320    80.3960    22.6940   205.7350    16.7630     2.6210   210.5180   184.2680 
 2587.7800   113.5520    80.5560    22.9070   214.3490    18.9450     2.5980   190.2560   166.8760 
 2587.9050   124.2250    81.0230    23.1880   221.4640    21.2030     2.5720   174.2550   153.7000 
 2588.0300   130.3560    81.7710    23.4700   225.5800    22.7380     2.5510   160.8980   142.9850 
 2588.1550   133.1770    82.6820    23.8550   227.0810    22.8770     2.5460   149.1600   133.5010 
 2588.2800   138.1460    83.5340    24.6410   228.2090    22.4490     2.5410   140.8310   126.9230 
 2588.4050   147.7290    84.1660    25.1180   235.2630    22.6400     2.5020   138.4640   125.6640 
