~Version Information Section
VERS.       2.00        :Log ASCII Standard-VERSION 2.0
WRAP.       NO          :One line per depth step
VEND.       PRIZM       :GeoGraphix
~Well Information Section
#MNEM.UNIT               VALUE/NAME                 DESCRIPTION
#----.----     ----------------------------------   --------------------
 STRT.M        2458.5300                            :START DEPTH
 STOP.M        2613.6550                            :STOP DEPTH
 STEP.M        0.1250                               :STEP
 NULL.         -999.2500                            :NULL VALUE
 WELL.         T010                                 :WELL
 COMP.                                              :COMPANY
 UWI.          T010                                 :UNIQUE WELL ID
 FLD.                                               :FIELD
 CNTY.                                              :COUNTY
 STAT.                                              :STATE
 CTRY.                                              :COUNTRY
 PROV.                                              :PROVENCE
 SRVC.         GEOGRAPHIX                           :SERVICE
 PDAT.         GR                                   :PERMANENT DATUM
 LMF.          KB                                   :LOG MEASURED FROM
 DMF.          KB                                   :DRILLING MEASURED FROM
 LOC.          TWP        - Range       - Sec       :LOCATION DESCRIPTION
 FTG.                                               :LOCATION FOOTAGE DESCRIPTION
 LOC1.                                              :LOCATION LINE 1
 LOC2.                                              :LOCATION LINE 2
 DATE.                                              :LOG DATE
~Curve Information Section
#MNEM.UNIT              API CODE            CURVE DESCRIPTION
#----.----            LG--CV-CL--M          -------------------------
 DEPT.M                                     :DEPTH
 GR.API                                     :Gamma Ray
 SP.MV                                      :Spontaneous Potential
 CAL.CM                                     :Description
 AC.US/MT                                   :Description
 CNL.                                       :Description
 DEN.GM/CC                                  :Description
 LLD.OHMM                                   :Laterlog-Deep Resistivity
 LLS.OHMM                                   :Laterlog-Shallow Resistivity
~Parameter Information Section
#MNEM.UNIT                  VALUE                   DESCRIPTION
#----.----     ----------------------------------   --------------------
 EKB.          1099.3000                            :ELEVATION OF KELLY BUSHING
 EDF.          -999.2500                            :ELEVATION OF DRILLING FLOOR
 EGL.          -999.2500                            :ELEVATION OF GROUND LEVEL
~A
# ...
 2528.5300    87.9300    68.0680    28.6080   210.1650     8.5420     2.1760   147.5680   139.3650 
 2528.6550    99.8860    68.3540    28.0800   212.5770    10.1110     2.1980   112.3960   107.4790 
 2528.7800   101.1700    68.6430    27.1480   212.2810    11.3920     2.2730    91.3650    88.9060 
 2528.9050    95.0310    68.9460    26.0320   209.7800    11.7980     2.3930    78.2950    77.5350 
 2529.0300    87.7660    69.2250    24.7520   207.3410    11.5350     2.5240    70.2320    70.5210 
 2529.1550    85.9600    69.3610    23.7510   206.3730    11.1400     2.6060    65.0560    65.9860 
 2529.2800    88.6420    69.3320    23.1880   206.6910    10.7850     2.6370    61.4910    62.9320 
 2529.4050    90.9620    69.2170    23.0040   208.0700    10.2720     2.6420    59.4050    61.3080 
 2529.5300    88.4620    69.1260    23.0040   209.5570     9.2320     2.6420    59.0310    61.2570 
 2529.6550    82.2570    69.0860    23.0040   210.2010     7.9810     2.6460    60.3310    62.6590 
 2529.7800    76.4160    69.0590    23.0030   209.6520     7.3220     2.6480    63.1030    65.3210 
 2529.9050    74.5730    68.9970    22.8640   208.7690     7.5570     2.6450    66.5160    68.4730 
 2530.0300    77.4290    68.9000    22.7040   208.2460     8.2790     2.6400    69.8300    71.3520 
 2530.1550    84.5770    68.7640    22.4040   208.7950     8.8530     2.6390    72.4530    73.3160 
 2530.2800    91.6120    68.5080    22.3890   209.6790     9.2890     2.6410    74.3600    74.4590 
 2530.4050    94.1060    68.0660    22.3870   210.2280    10.0910     2.6430    75.6540    74.9910 
 2530.5300    90.9310    67.6050    22.3930   210.0400    11.1790     2.6430    76.3000    74.9600 
 2530.6550    87.0460    67.4920    22.3770   209.4100    11.6440     2.6440    76.3370    74.4370 
 2530.7800    85.8270    67.9320    22.3610   208.3120    11.3090     2.6470    75.8380    73.5020 
 2530.9050    86.5400    68.2060    22.3590   206.7050    11.0460     2.6470    75.0720    72.3470 
 2531.0300    86.2630    67.8470    22.3580   205.5010    11.2310     2.6410    74.3770    71.2200 
 2531.1550    83.8910    67.7770    22.3570   205.2210    11.4520     2.6320    74.1650    70.5230 
 2531.2800    80.7710    67.6680    22.3680   205.0720    11.0020     2.6250    75.0690    70.9410 
 2531.4050    77.9240    67.4570    22.3770   204.5520    10.0530     2.6190    77.6620    73.0260 
 2531.5300    74.7060    67.2460    22.3740   205.0360     9.1870     2.6120    82.7440    77.4350 
 2531.6550    69.6980    67.0500    22.3440   206.5910     8.6250     2.6010    90.6170    84.3180 
 2531.7800    62.7570    67.0610    22.3210   207.9000     8.1970     2.5810   101.7270    94.0510 
 2531.9050    55.5690    67.4830    22.3080   208.2330     7.7370     2.5590   116.5970   107.1930 
 2532.0300    50.0480    67.9950    23.7410   208.2330     7.2500     2.5410   133.1870   122.0770 
 2532.1550    46.9920    68.3860    24.2450   207.9230     6.8440     2.5210   149.3750   136.8700 
 2532.2800    45.7790    68.6530    24.9410   206.6600     6.6390     2.4920   163.2170   149.6910 
 2532.4050    45.6630    68.9170    24.8560   205.0130     6.6650     2.4580   173.2340   159.0890 
 2532.5300    47.6040    69.1820    24.4340   203.3660     7.0160     2.4330   176.2590   162.0940 
 2532.6550    54.6390    69.4190    24.0550   200.2250     7.7960     2.4360   169.4590   156.0410 
 2532.7800    68.0950    69.5280    23.9060   198.1930     8.9480     2.4670   155.0810   142.9870 
 2532.9050    87.2340    69.5280    23.9060   199.0600    10.4100     2.5250   137.4220   126.9150 
 2533.0300   107.2590    69.5280    23.9060   202.4000    12.1990     2.5930   121.0260   112.0380 
 2533.1550   123.5850    69.5980    23.8800   206.4000    14.5470     2.6450   107.6940    99.9800 
 2533.2800   132.3570    70.8550    23.5550   210.7560    17.4960     2.6340    99.0210    92.2870 
 2533.4050   134.1730    70.7600    23.2790   214.1840    20.0620     2.6140    94.6590    88.8430 
 2533.5300   131.6710    70.8380    23.1150   215.7460    21.4490     2.6170    93.3700    88.4820 
 2533.6550   129.2590    71.0430    22.9360   216.3700    22.0490     2.6190    93.5480    89.4660 
 2533.7800   128.8900    71.2480    22.7560   217.4310    22.7080     2.6180    94.3350    90.7840 
 2533.9050   129.8210    71.3200    22.5990   219.1520    23.3970     2.6110    95.8330    92.4970 
 2534.0300   129.9050    71.1530    22.6220   221.3820    23.2140     2.6000    98.5100    95.0750 
 2534.1550   128.1700    70.8500    22.6510   222.2860    21.6700     2.5900   102.7750    98.8990 
 2534.2800   123.9700    70.6280    22.6810   220.9180    19.2270     2.5840   108.5990   103.8720 
 2534.4050   118.7500    70.6410    22.7090   220.4050    17.2340     2.5830   114.2690   108.4710 
 2534.5300   115.7980    70.7650    22.6840   221.1960    16.0760     2.5830   117.8930   111.2180 
 2534.6550   117.0330    70.7280    22.6750   220.5030    15.5840     2.5830   118.1660   111.1740 
 2534.7800   118.9440    70.3780    22.6850   218.7470    15.3520     2.5860   115.7850   108.9250 
 2534.9050   117.6440    69.7990    22.6750   216.6980    15.0140     2.5920   112.1190   105.5790 
 2535.0300   112.3480    69.2080    22.6480   212.2310    13.8970     2.6010   109.0420   102.7650 
 2535.1550   106.1560    68.8570    22.6030   206.3570    12.3030     2.6070   107.7600   101.5750 
 2535.2800   100.5960    68.9520    22.5000   202.2680    10.9090     2.6110   108.2050   101.9030 
 2535.4050    97.0510    69.6170    22.3940   200.9670    10.1620     2.6120   109.3070   102.6860 
 2535.5300    96.0010    70.5280    22.3430   200.3980     9.8720     2.6150   110.2340   103.1680 
 2535.6550    96.5920    71.2200    22.3250   199.8340     9.7850     2.6220   111.1450   103.5160 
 2535.7800    97.2960    71.3690    22.3160   199.4370     9.7130     2.6300   112.8320   104.5220 
 2535.9050    97.5440    71.2260    22.3090   199.0000     9.6560     2.6370   115.5770   106.4560 
 2536.0300    97.2060    71.2590    22.3010   198.6420     9.7190     2.6380   119.1200   109.0670 
 2536.1550    95.8230    71.7380    22.2940   198.4760     9.9890     2.6390   122.8700   111.8840 
 2536.2800    93.5790    72.4870    22.2840   197.7670    10.3100     2.6390   126.5130   114.6890 
 2536.4050    91.9040    73.1130    22.2800   196.1730    10.4100     2.6400   129.5050   117.0530 
 2536.5300    91.6480    73.3210    22.2630   194.9350    10.2890     2.6390   130.7750   118.0100 
 2536.6550    92.3160    73.0950    22.2330   194.6710    10.1360     2.6380   129.0290   116.4210 
 2536.7800    93.3660    72.6100    22.2190   195.3740    10.1600     2.6350   122.9700   111.0740 
 2536.9050    95.0390    72.1510    22.2130   197.3090    10.4020     2.6320   113.8960   103.0770 
 2537.0300    97.0970    71.8460    22.2200   200.1490    10.9020     2.6280   103.6360    94.1630 
 2537.1550    97.9170    71.6810    22.2480   202.2930    11.5650     2.6250    94.9650    86.8540 
 2537.2800    96.2940    71.5490    22.3080   203.2800    12.0620     2.6210    89.5460    82.4230 
 2537.4050    91.8110    71.3700    22.3540   203.0710    12.0730     2.6180    88.1450    81.3880 
 2537.5300    85.8970    71.1220    22.3650   201.8410    11.5910     2.6150    89.8420    83.0300 
 2537.6550    81.0080    70.8420    22.3640   200.4110    10.9700     2.6110    92.8430    85.9380 
 2537.7800    79.1820    70.5960    22.3480   199.3190    10.5610     2.6070    95.4450    88.5780 
 2537.9050    80.7340    70.4370    22.3110   198.8360    10.5000     2.6040    96.3090    89.5820 
 2538.0300    84.2830    70.3670    22.2910   199.5850    10.7550     2.6030    95.1370    88.5780 
 2538.1550    88.3630    70.3330    22.2850   201.7470    11.2660     2.6040    92.7720    86.3870 
 2538.2800    92.3850    70.2240    22.2960   204.0860    11.8270     2.6050    91.5660    85.2320 
 2538.4050    95.0700    69.9440    22.3280   205.9560    12.2770     2.6050    93.0520    86.5180 
