~Version Information Section
VERS.       2.00        :Log ASCII Standard-VERSION 2.0
WRAP.       NO          :One line per depth step
VEND.       PRIZM       :GeoGraphix
~Well Information Section
#MNEM.UNIT               VALUE/NAME                 DESCRIPTION
#----.----     ----------------------------------   --------------------
 STRT.M        2458.5300                            :START DEPTH
 STOP.M        2613.6550                            :STOP DEPTH
 STEP.M        0.1250                               :STEP
 NULL.         -999.2500                            :NULL VALUE
 WELL.         T010                                 :WELL
 COMP.                                              :COMPANY
 UWI.          T010                                 :UNIQUE WELL ID
 FLD.                                               :FIELD
 CNTY.                                              :COUNTY
 STAT.                                              :STATE
 CTRY.                                              :COUNTRY
 PROV.                                              :PROVENCE
 SRVC.         GEOGRAPHIX                           :SERVICE
 PDAT.         GR                                   :PERMANENT DATUM
 LMF.          KB                                   :LOG MEASURED FROM
 DMF.          KB                                   :DRILLING MEASURED FROM
 LOC.          TWP        - Range       - Sec       :LOCATION DESCRIPTION
 FTG.                                               :LOCATION FOOTAGE DESCRIPTION
 LOC1.                                              :LOCATION LINE 1
 LOC2.                                              :LOCATION LINE 2
 DATE.                                              :LOG DATE
~Curve Information Section
#MNEM.UNIT              API CODE            CURVE DESCRIPTION
#----.----            LG--CV-CL--M          -------------------------
 DEPT.M                                     :DEPTH
 GR.API                                     :Gamma Ray
 SP.MV                                      :Spontaneous Potential
 CAL.CM                                     :Description
 AC.US/MT                                   :Description
 CNL.                                       :Description
 DEN.GM/CC                                  :Description
 LLD.OHMM                                   :Laterlog-Deep Resistivity
 LLS.OHMM                                   :Laterlog-Shallow Resistivity
~Parameter Information Section
#MNEM.UNIT                  VALUE                   DESCRIPTION
#----.----     ----------------------------------   --------------------
 EKB.          1099.3000                            :ELEVATION OF KELLY BUSHING
 EDF.          -999.2500                            :ELEVATION OF DRILLING FLOOR
 EGL.          -999.2500                            :ELEVATION OF GROUND LEVEL
~A
# ...
 2508.5300   130.4810    81.1890    22.8510   222.0710    23.3260     2.5770    50.4620    49.5440 
 2508.6550   131.3980    81.1290    22.7130   223.6090    23.3670     2.5780    49.3650    48.7720 
 2508.7800   133.0550    81.0530    22.6830   227.5510    23.2960     2.5650    47.8140    47.6210 
 2508.9050   134.9720    80.9500    22.7250   229.9450    23.7070     2.5440    46.1420    46.3370 
 2509.0300   136.8640    80.8240    22.7730   230.7310    24.8780     2.5170    44.3150    44.7410 
 2509.1550   137.2330    80.6880    22.8220   235.0730    26.2200     2.4850    42.4190    42.8790 
 2509.2800   134.1440    80.5510    22.8300   242.7900    26.6420     2.4560    41.1200    41.4660 
 2509.4050   128.7860    80.4130    22.9370   246.2280    25.8520     2.4440    41.0290    41.2130 
 2509.5300   124.3340    80.2750    23.0840   245.7840    24.2280     2.4590    42.1260    42.1120 
 2509.6550   124.2420    80.1380    23.1240   244.9520    22.4660     2.4990    44.5310    44.2370 
 2509.7800   127.8620    80.0000    23.1130   239.8980    21.3320     2.5420    48.1740    47.5360 
 2509.9050   133.9110    79.8620    23.1000   230.0510    21.0490     2.5690    52.6710    51.6680 
 2510.0300   140.4140    79.7240    23.0330   223.1130    21.4380     2.5720    57.3460    55.9400 
 2510.1550   145.9940    79.5850    22.8190   219.8550    21.8020     2.5650    62.5870    60.6770 
 2510.2800   151.6380    79.4340    22.6790   216.5140    21.2440     2.5640    70.1840    67.5360 
 2510.4050   158.5570    79.2180    22.6480   212.1350    19.3170     2.5710    82.7780    78.7970 
 2510.5300   163.6640    78.8730    22.5830   207.1940    16.7880     2.5800   101.3970    94.9770 
 2510.6550   160.5650    78.3510    22.5250   201.9530    14.6530     2.5810   125.5160   115.1760 
 2510.7800   147.9020    77.7070    22.4050   197.8630    13.1750     2.5710   149.7130   135.0670 
 2510.9050   130.9360    77.0150    22.3120   195.7090    12.1100     2.5520   166.8290   149.2070 
 2511.0300   116.4080    76.3110    22.2630   195.3180    11.3280     2.5320   168.8690   151.1880 
 2511.1550   106.3410    75.6070    22.2070   196.1350    10.8130     2.5180   157.3210   141.8930 
 2511.2800    98.8960    74.9030    22.1950   197.8430    10.6010     2.5100   138.3740   126.1550 
 2511.4050    92.9600    74.1940    22.2160   199.4560    10.5720     2.5040   120.3600   111.0060 
 2511.5300    88.7420    73.4620    22.2430   200.0970    10.4470     2.4980   107.1690   100.0090 
 2511.6550    86.3080    72.6780    22.2770   199.6860    10.1640     2.4890    98.5190    93.0260 
 2511.7800    84.0390    71.8160    22.2820   199.4870     9.8700     2.4790    92.4730    88.3900 
 2511.9050    80.4100    70.8990    22.2700   200.0990     9.7590     2.4700    87.2720    84.4460 
 2512.0300    76.7610    69.3830    22.2640   201.0620     9.8950     2.4640    82.3490    80.5880 
 2512.1550    75.6200    68.9360    22.2770   203.0930    10.1490     2.4600    78.1000    77.1990 
 2512.2800    76.6510    68.8330    22.2930   206.5530    10.4570     2.4570    75.1580    74.9040 
 2512.4050    78.4460    68.6380    22.3140   209.7090    10.7590     2.4570    73.8650    74.0850 
 2512.5300    80.2160    68.3300    22.3890   211.5330    10.9260     2.4610    73.7350    74.3320 
 2512.6550    81.7830    68.0220    22.4470   212.3760    10.8940     2.4700    74.3160    75.2320 
 2512.7800    82.2880    67.7140    22.4910   210.9390    10.6140     2.4770    75.1670    76.4030 
 2512.9050    81.2050    67.4060    22.4980   207.7820    10.2050     2.4790    75.7350    77.2900 
 2513.0300    79.8010    67.0980    22.4800   205.3820     9.8180     2.4760    75.6160    77.4070 
 2513.1550    79.9350    66.7900    22.4290   205.8410     9.6630     2.4690    74.6880    76.5400 
 2513.2800    81.4140    66.4820    22.3770   208.2760     9.9020     2.4610    73.4550    75.2400 
 2513.4050    82.8590    66.1740    22.3950   211.4680    10.4640     2.4490    72.5840    74.2540 
 2513.5300    82.0150    65.8660    22.4420   213.4850    10.8620     2.5020    73.3530    74.9350 
 2513.6550    77.6400    65.5580    22.1910   213.8640    10.7030     2.5400    77.1170    78.6600 
 2513.7800    69.8040    65.2500    22.4010   213.3000    10.0370     2.4870    84.8950    86.4770 
 2513.9050    61.9010    65.0230    22.8350   211.4770     9.4390     2.4240    94.6680    89.2330 
 2514.0300    58.2380    64.7640    23.3660   209.8170     9.2110     2.3630   102.8120    96.9880 
 2514.1550    61.8070    64.3680    24.1300   211.4110     9.3860     2.3300   105.2490    99.5710 
 2514.2800    70.0770    63.9720    25.5850   213.7100     9.8110     2.3450   101.1900    96.1250 
 2514.4050    78.5570    63.5760    24.8660   214.0900    10.5030     2.4060    92.2070    88.0240 
 2514.5300    82.4290    63.2610    24.3170   213.5250    11.6100     2.4850    82.0510    78.7710 
 2514.6550    82.0680    63.2710    23.5340   212.3840    12.8490     2.5420    75.2040    72.6460 
 2514.7800    79.4660    63.5060    23.2640   210.3850    13.5360     2.5560    74.2550    72.0880 
 2514.9050    75.7230    63.7410    23.1790   208.5780    12.9700     2.5370    80.1270    77.8790 
 2515.0300    70.4290    63.9760    23.3170   208.1060    11.7270     2.5060    91.4650    88.8260 
 2515.1550    64.4710    64.2100    23.5360   209.7470    10.5720     2.4630   107.0400   104.0540 
 2515.2800    60.9170    64.3190    23.8180   211.9000     9.7900     2.4000   122.5260   119.6410 
 2515.4050    60.1550    64.1390    24.0990   212.4660     9.1940     2.3160   132.8600   130.4410 
 2515.5300    60.3050    63.7870    24.2060   212.0960     8.7650     2.2390   134.0250   132.0480 
 2515.6550    60.2380    63.4350    24.3350   211.4400     8.8030     2.1990   127.9160   126.1540 
 2515.7800    61.4420    63.0900    24.7680   211.5710     9.4200     2.1840   118.7740   117.1640 
 2515.9050    65.3800    62.6580    25.4280   215.1500    10.1580     2.1750   110.7630   109.3610 
 2516.0300    69.6460    61.8030    26.5120   217.9130    10.2540     2.1680   106.0830   104.8220 
 2516.1550    70.9030    61.8030    27.5960   216.2170     9.5660     2.1730   105.8580   104.5860 
 2516.2800    66.9290    61.8030    27.9490   213.5200     8.6770     2.1870   111.6600   110.2400 
 2516.4050    59.6650    61.7960    27.3100   211.1330     8.1720     2.1990   123.3130   121.5990 
 2516.5300    52.4340    61.7240    27.1170   207.1330     8.1140     2.2040   139.1260   137.0290 
 2516.6550    49.7400    61.5870    27.6480   204.9410     8.1490     2.2030   152.6700   150.4110 
 2516.7800    52.4440    61.4460    28.1790   206.0850     8.0600     2.1960   158.2350   156.0540 
 2516.9050    58.3100    61.3050    28.7100   206.8460     8.0270     2.1800   153.7150   151.6320 
 2517.0300    62.9920    61.1640    28.9470   204.2820     8.3670     2.1580   144.4110   142.2140 
 2517.1550    65.2330    61.0240    28.6100   200.2430     9.0130     2.1390   136.8370   134.3700 
 2517.2800    65.8340    60.8830    28.2520   198.2260     9.5250     2.1390   136.2630   133.5220 
 2517.4050    64.7410    60.7420    27.9020   199.8110     9.6500     2.1540   143.5430   140.4710 
 2517.5300    60.7260    60.6010    27.8110   204.4090     9.6380     2.1710   157.5380   153.7810 
 2517.6550    54.7500    60.5710    27.8110   210.0170     9.7290     2.1740   177.6970   172.3620 
 2517.7800    50.7770    60.7890    27.8110   213.2760     9.6170     2.1630   202.5720   194.9970 
 2517.9050    49.8820    61.1410    27.8110   213.4730     9.0710     2.1500   230.2800   220.3980 
 2518.0300    49.0570    61.4930    27.7600   211.8520     8.9730     2.1510   254.6440   242.8840 
 2518.1550    46.3700    61.8450    27.5490   209.1260    10.2190     2.1770   268.5310   255.1920 
 2518.2800    44.4690    62.1970    27.3300   206.4130    13.0510     2.2150   264.2700   249.7580 
 2518.4050    48.8180    62.6900    27.0110   205.6530    15.8680     2.2360   238.9690   224.5120 
