~Version Information Section
VERS.       2.00        :Log ASCII Standard-VERSION 2.0
WRAP.       NO          :One line per depth step
VEND.       PRIZM       :GeoGraphix
~Well Information Section
#MNEM.UNIT               VALUE/NAME                 DESCRIPTION
#----.----     ----------------------------------   --------------------
 STRT.M        2458.5300                            :START DEPTH
 STOP.M        2613.6550                            :STOP DEPTH
 STEP.M        0.1250                               :STEP
 NULL.         -999.2500                            :NULL VALUE
 WELL.         T010                                 :WELL
 COMP.                                              :COMPANY
 UWI.          T010                                 :UNIQUE WELL ID
 FLD.                                               :FIELD
 CNTY.                                              :COUNTY
 STAT.                                              :STATE
 CTRY.                                              :COUNTRY
 PROV.                                              :PROVENCE
 SRVC.         GEOGRAPHIX                           :SERVICE
 PDAT.         GR                                   :PERMANENT DATUM
 LMF.          KB                                   :LOG MEASURED FROM
 DMF.          KB                                   :DRILLING MEASURED FROM
 LOC.          TWP        - Range       - Sec       :LOCATION DESCRIPTION
 FTG.                                               :LOCATION FOOTAGE DESCRIPTION
 LOC1.                                              :LOCATION LINE 1
 LOC2.                                              :LOCATION LINE 2
 DATE.                                              :LOG DATE
~Curve Information Section
#MNEM.UNIT              API CODE            CURVE DESCRIPTION
#----.----            LG--CV-CL--M          -------------------------
 DEPT.M                                     :DEPTH
 GR.API                                     :Gamma Ray
 SP.MV                                      :Spontaneous Potential
 CAL.CM                                     :Description
 AC.US/MT                                   :Description
 CNL.                                       :Description
 DEN.GM/CC                                  :Description
 LLD.OHMM                                   :Laterlog-Deep Resistivity
 LLS.OHMM                                   :Laterlog-Shallow Resistivity
~Parameter Information Section
#MNEM.UNIT                  VALUE                   DESCRIPTION
#----.----     ----------------------------------   --------------------
 EKB.          1099.3000                            :ELEVATION OF KELLY BUSHING
 EDF.          -999.2500                            :ELEVATION OF DRILLING FLOOR
 EGL.          -999.2500                            :ELEVATION OF GROUND LEVEL
~A
# ...
 2468.5300    65.1880    61.0400    22.2840   201.4990    11.5590     2.6100    78.7400    69.9080 
 2468.6550    67.4550    60.5230    22.2900   203.5310    11.6490     2.6110    70.1360    62.4030 
 2468.7800    70.1590    59.7620    22.3230   205.4070    11.9470     2.6090    63.2070    56.2930 
 2468.9050    71.6750    59.0010    22.3490   206.5340    12.3010     2.6070    57.9830    51.7440 
 2469.0300    71.2100    58.4120    22.3820   207.3420    12.7230     2.6090    53.8700    48.3510 
 2469.1550    70.0340    57.9940    22.4100   208.6160    13.1960     2.6060    50.4920    45.7690 
 2469.2800    69.3210    57.6920    22.7040   209.7040    13.6020     2.6020    47.7800    43.8800 
 2469.4050    68.4380    57.3410    22.7040   210.1120    13.7720     2.5970    45.6290    42.4400 
 2469.5300    66.2770    56.7770    22.7040   210.3710    13.6380     2.5920    43.9110    41.2300 
 2469.6550    63.4230    55.4370    22.7040   209.9260    13.2190     2.5890    42.4530    40.0720 
 2469.7800    61.9020    54.5740    22.7040   208.8740    12.8220     2.5880    40.7860    38.6410 
 2469.9050    62.0990    54.3230    22.7040   208.6630    12.5830     2.5870    38.5730    36.6860 
 2470.0300    63.0430    53.8760    22.7040   209.9330    12.3840     2.5840    35.8450    34.2320 
 2470.1550    63.6790    53.1220    22.7040   211.5410    12.0180     2.5810    33.2080    31.8330 
 2470.2800    64.1510    52.3670    22.7360   213.0980    11.5340     2.5780    31.1500    29.9680 
 2470.4050    64.4880    51.6130    22.8560   214.1240    11.1770     2.5770    30.1090    29.0310 
 2470.5300    64.2820    50.8590    22.9590   214.4690    10.8940     2.5790    30.1750    29.0720 
 2470.6550    63.2540    50.1040    23.0990   214.9730    10.5210     2.5830    31.6130    30.3000 
 2470.7800    60.3610    49.7120    23.2400   215.9830    10.0540     2.5850    34.6330    32.8690 
 2470.9050    54.9280    50.0040    23.7310   216.2990     9.5260     2.5840    38.9650    36.5900 
 2471.0300    47.8600    50.6370    25.4030   214.6520     8.8260     2.5780    44.0840    41.1500 
 2471.1550    41.6550    51.2190    25.5080   211.5520     7.9280     2.5670    48.8320    45.6460 
 2471.2800    37.6080    51.5020    25.3100   207.9160     7.1410     2.5520    52.0520    48.9770 
 2471.4050    36.5810    51.5020    25.1040   204.8630     6.9190     2.5360    52.6280    49.9110 
 2471.5300    38.2170    51.5020    24.8210   203.9790     7.1280     2.5180    51.3610    49.0030 
 2471.6550    41.8640    51.5020    24.5250   204.9060     7.5130     2.5060    49.5550    47.4440 
 2471.7800    46.3920    52.1650    24.2520   204.3610     8.0160     2.5170    48.1480    46.0900 
 2471.9050    53.4480    53.5250    23.9540   202.4710     8.7300     2.5010    46.7050    44.5970 
 2472.0300    67.3520    55.0030    23.6540   203.4990     9.6470     2.4890    44.6100    42.5160 
 2472.1550    88.5880    55.8880    23.2950   210.2900    10.6110     2.4800    41.8320    39.9940 
 2472.2800   108.6560    56.1590    22.9370   219.1560    11.8750     2.4720    38.9370    37.5030 
 2472.4050   118.0790    56.3700    22.7040   226.9960    14.0310     2.4640    36.6630    35.5440 
 2472.5300   114.9150    56.6440    22.7040   232.2430    16.4110     2.4570    35.9010    34.8470 
 2472.6550   105.0190    57.2520    22.7040   232.1530    17.2310     2.4570    36.9670    35.8150 
 2472.7800    94.7830    58.1570    22.7040   225.1650    15.8970     2.4730    39.9050    38.6150 
 2472.9050    88.2980    59.4030    22.7040   217.4250    14.0370     2.5000    44.1760    42.7350 
 2473.0300    86.0230    60.5740    22.7040   212.4810    12.4440     2.5190    49.4210    47.8090 
 2473.1550    86.2060    60.7020    22.7040   209.3870    11.3680     2.5250    55.4290    53.6380 
 2473.2800    85.1980    60.8750    22.7040   206.5190    10.8930     2.5310    61.6760    59.5950 
 2473.4050    81.9700    61.2590    22.6040   203.5110    11.0090     2.5460    67.3840    64.7860 
 2473.5300    77.8650    61.6430    22.4190   200.9310    11.3380     2.5680    71.2790    68.0270 
 2473.6550    74.2070    62.0270    22.3560   199.4750    11.3810     2.5880    73.2620    69.4710 
 2473.7800    70.9560    62.3450    22.3000   198.9310    10.8610     2.6040    74.0840    69.9480 
 2473.9050    67.6090    61.8790    22.2800   198.8260     9.7990     2.6200    75.1420    70.6880 
 2474.0300    64.2340    60.6480    22.2700   198.9570     8.5740     2.6320    76.9020    72.0850 
 2474.1550    61.2440    59.8150    22.2650   198.7030     7.6290     2.6360    78.7100    73.6570 
 2474.2800    59.6910    59.5260    22.2670   197.7860     7.1790     2.6360    79.1900    74.1990 
 2474.4050    60.6030    59.2910    22.2650   196.6910     7.1530     2.6360    77.8250    73.1420 
 2474.5300    63.9220    59.0570    22.2450   196.0780     7.4070     2.6380    75.2560    70.9810 
 2474.6550    67.0130    58.8220    22.2310   197.0640     7.7390     2.6390    73.3980    69.4240 
 2474.7800    67.8980    58.6340    22.2180   199.2040     8.0450     2.6360    73.3650    69.4700 
 2474.9050    66.3080    59.0620    22.2280   200.5080     8.2010     2.6280    75.4000    71.3680 
 2475.0300    64.8100    59.9810    22.2760   200.3260     8.2590     2.6180    77.9000    73.7780 
 2475.1550    64.8060    60.5890    22.2970   199.4040     8.2970     2.6100    78.8240    74.9130 
 2475.2800    66.9570    61.0090    22.2910   198.2960     8.4120     2.6050    76.5700    73.2240 
 2475.4050    71.1950    61.5370    22.2720   197.9390     8.7180     2.6070    72.3750    69.7180 
 2475.5300    76.4150    62.0650    22.2580   199.3290     9.2340     2.6140    68.3950    66.3280 
 2475.6550    79.4840    62.5930    22.2480   201.4150     9.6940     2.6210    66.2170    64.4890 
 2475.7800    79.0310    63.0900    22.2780   202.7560     9.8400     2.6230    65.5730    63.9420 
 2475.9050    76.4900    64.0400    22.3220   203.1550     9.6980     2.6220    65.6470    63.9980 
 2476.0300    75.5610    64.8210    22.3360   203.0210     9.7540     2.6230    65.5820    63.9710 
 2476.1550    76.5560    65.0490    22.3460   203.0340    10.3100     2.6270    65.0820    63.5860 
 2476.2800    77.5800    66.6270    22.3440   203.6580    11.4750     2.6300    64.2720    62.8390 
 2476.4050    77.9670    66.8430    22.3380   204.1260    12.7430     2.6310    63.8660    62.3740 
 2476.5300    77.8320    66.9950    22.3490   204.2220    13.3810     2.6320    64.8050    63.1730 
 2476.6550    76.9170    66.9120    22.3530   203.5630    12.8330     2.6340    68.0580    66.2570 
 2476.7800    75.5490    66.5410    22.3580   201.4300    11.6620     2.6360    72.9410    70.9090 
 2476.9050    74.4780    66.0300    22.3520   198.9580    10.5070     2.6350    78.4900    76.1660 
 2477.0300    73.9900    65.7470    22.2990   197.5430     9.6970     2.6290    84.2430    81.7030 
 2477.1550    72.7770    65.8600    22.2580   195.8860     9.1710     2.6200    89.8240    87.2050 
 2477.2800    70.7380    66.2930    22.2400   194.5860     9.0270     2.6180    93.8010    91.1440 
 2477.4050    70.6530    66.6830    22.2100   195.7060     9.5230     2.6200    94.4190    91.7060 
 2477.5300    73.6170    66.7750    22.1880   196.2290    10.6960     2.6210    91.5690    88.8630 
 2477.6550    78.4610    66.4980    22.2010   195.9230    12.4310     2.6230    86.0890    83.5910 
 2477.7800    82.7900    66.0730    22.2160   201.2420    14.3940     2.6250    80.2070    78.0150 
 2477.9050    85.7040    65.6860    22.2180   208.9330    16.3030     2.6250    76.0730    74.1320 
 2478.0300    85.8540    65.4500    22.2810   210.3410    17.5520     2.6250    76.5570    74.7800 
 2478.1550    82.2750    65.3760    22.9630   209.5010    17.4800     2.6280    82.0570    80.4250 
 2478.2800    75.9890    65.4680    23.0770   206.9780    15.8460     2.6320    92.4310    90.9880 
 2478.4050    71.0030    65.6260    23.3590   198.1550    13.5230     2.6270   106.4920   105.4740 
